{
  "generatedAt": "2026-04-07T11:04:12.207Z",
  "travelTimeMinutes": 30,
  "totalPoints": 456,
  "points": [
    {
      "id": "kings-cross",
      "name": "King's Cross",
      "lat": 51.5308,
      "lng": -0.1238,
      "type": "tube_station",
      "coverage": {
        "walking": 10.9,
        "cycling": 113.7,
        "transit": 78.8,
        "driving": 39.9,
        "multimodal": 82.7
      },
      "zone": "central"
    },
    {
      "id": "euston",
      "name": "Euston",
      "lat": 51.5282,
      "lng": -0.1337,
      "type": "tube_station",
      "coverage": {
        "walking": 9.8,
        "cycling": 109.1,
        "transit": 59.3,
        "driving": 50.7,
        "multimodal": 75
      },
      "zone": "central"
    },
    {
      "id": "st-pancras",
      "name": "St Pancras",
      "lat": 51.5321,
      "lng": -0.1266,
      "type": "rail_station",
      "coverage": {
        "walking": 10.3,
        "cycling": 112.8,
        "transit": 55.2,
        "driving": 42.9,
        "multimodal": 63.9
      },
      "zone": "central"
    },
    {
      "id": "paddington",
      "name": "Paddington",
      "lat": 51.5154,
      "lng": -0.1755,
      "type": "tube_station",
      "coverage": {
        "walking": 11,
        "cycling": 117.4,
        "transit": 60.9,
        "driving": 115.8,
        "multimodal": 132
      },
      "zone": "inner"
    },
    {
      "id": "liverpool-street",
      "name": "Liverpool Street",
      "lat": 51.5178,
      "lng": -0.0823,
      "type": "tube_station",
      "coverage": {
        "walking": 10.9,
        "cycling": 112.5,
        "transit": 95,
        "driving": 34.2,
        "multimodal": 89.2
      },
      "zone": "inner"
    },
    {
      "id": "victoria",
      "name": "Victoria",
      "lat": 51.4965,
      "lng": -0.1447,
      "type": "tube_station",
      "coverage": {
        "walking": 10.2,
        "cycling": 112.4,
        "transit": 68.3,
        "driving": 46.7,
        "multimodal": 78.5
      },
      "zone": "central"
    },
    {
      "id": "waterloo",
      "name": "Waterloo",
      "lat": 51.5033,
      "lng": -0.1127,
      "type": "tube_station",
      "coverage": {
        "walking": 10.5,
        "cycling": 109.7,
        "transit": 82.4,
        "driving": 34.9,
        "multimodal": 83.6
      },
      "zone": "central"
    },
    {
      "id": "london-bridge",
      "name": "London Bridge",
      "lat": 51.5052,
      "lng": -0.0864,
      "type": "tube_station",
      "coverage": {
        "walking": 10.4,
        "cycling": 108.5,
        "transit": 69.7,
        "driving": 35.8,
        "multimodal": 76.9
      },
      "zone": "central"
    },
    {
      "id": "bank",
      "name": "Bank",
      "lat": 51.5133,
      "lng": -0.0886,
      "type": "tube_station",
      "coverage": {
        "walking": 11.4,
        "cycling": 117.1,
        "transit": 75.7,
        "driving": 34.1,
        "multimodal": 78.8
      },
      "zone": "central"
    },
    {
      "id": "oxford-circus",
      "name": "Oxford Circus",
      "lat": 51.5152,
      "lng": -0.1415,
      "type": "tube_station",
      "coverage": {
        "walking": 10.7,
        "cycling": 112.7,
        "transit": 69.4,
        "driving": 35.5,
        "multimodal": 74.3
      },
      "zone": "central"
    },
    {
      "id": "tottenham-court-road",
      "name": "Tottenham Court Road",
      "lat": 51.5165,
      "lng": -0.131,
      "type": "tube_station",
      "coverage": {
        "walking": 9.8,
        "cycling": 108.3,
        "transit": 67.9,
        "driving": 33.3,
        "multimodal": 73.1
      },
      "zone": "central"
    },
    {
      "id": "leicester-square",
      "name": "Leicester Square",
      "lat": 51.5113,
      "lng": -0.1281,
      "type": "tube_station",
      "coverage": {
        "walking": 10.6,
        "cycling": 115.4,
        "transit": 54.9,
        "driving": 26.9,
        "multimodal": 55.5
      },
      "zone": "central"
    },
    {
      "id": "piccadilly-circus",
      "name": "Piccadilly Circus",
      "lat": 51.51,
      "lng": -0.1347,
      "type": "tube_station",
      "coverage": {
        "walking": 10.7,
        "cycling": 113.2,
        "transit": 55.6,
        "driving": 28,
        "multimodal": 56.3
      },
      "zone": "central"
    },
    {
      "id": "covent-garden",
      "name": "Covent Garden",
      "lat": 51.5129,
      "lng": -0.1243,
      "type": "tube_station",
      "coverage": {
        "walking": 10.5,
        "cycling": 115.1,
        "transit": 45.9,
        "driving": 24.8,
        "multimodal": 47.4
      },
      "zone": "central"
    },
    {
      "id": "holborn",
      "name": "Holborn",
      "lat": 51.5174,
      "lng": -0.1201,
      "type": "tube_station",
      "coverage": {
        "walking": 9.8,
        "cycling": 103.7,
        "transit": 48.1,
        "driving": 34.8,
        "multimodal": 52.3
      },
      "zone": "central"
    },
    {
      "id": "chancery-lane",
      "name": "Chancery Lane",
      "lat": 51.5185,
      "lng": -0.1112,
      "type": "tube_station",
      "coverage": {
        "walking": 10.7,
        "cycling": 112.3,
        "transit": 51.2,
        "driving": 36.7,
        "multimodal": 58.5
      },
      "zone": "central"
    },
    {
      "id": "farringdon",
      "name": "Farringdon",
      "lat": 51.5203,
      "lng": -0.1053,
      "type": "tube_station",
      "coverage": {
        "walking": 9.9,
        "cycling": 102.1,
        "transit": 69.3,
        "driving": 39.1,
        "multimodal": 76.3
      },
      "zone": "central"
    },
    {
      "id": "barbican",
      "name": "Barbican",
      "lat": 51.5204,
      "lng": -0.0979,
      "type": "tube_station",
      "coverage": {
        "walking": 10.1,
        "cycling": 106.9,
        "transit": 43.6,
        "driving": 39.5,
        "multimodal": 53
      },
      "zone": "central"
    },
    {
      "id": "moorgate",
      "name": "Moorgate",
      "lat": 51.5186,
      "lng": -0.0886,
      "type": "tube_station",
      "coverage": {
        "walking": 10.7,
        "cycling": 111.1,
        "transit": 57.6,
        "driving": 35.9,
        "multimodal": 59.9
      },
      "zone": "central"
    },
    {
      "id": "old-street",
      "name": "Old Street",
      "lat": 51.5263,
      "lng": -0.0876,
      "type": "tube_station",
      "coverage": {
        "walking": 11.2,
        "cycling": 108.7,
        "transit": 58.8,
        "driving": 40,
        "multimodal": 63.9
      },
      "zone": "inner"
    },
    {
      "id": "angel",
      "name": "Angel",
      "lat": 51.5322,
      "lng": -0.1058,
      "type": "tube_station",
      "coverage": {
        "walking": 11.2,
        "cycling": 114.7,
        "transit": 49.8,
        "driving": 39.5,
        "multimodal": 58.2
      },
      "zone": "inner"
    },
    {
      "id": "warren-street",
      "name": "Warren Street",
      "lat": 51.5247,
      "lng": -0.1384,
      "type": "tube_station",
      "coverage": {
        "walking": 10.7,
        "cycling": 98.9,
        "transit": 55.5,
        "driving": 71.1,
        "multimodal": 90.9
      },
      "zone": "central"
    },
    {
      "id": "goodge-street",
      "name": "Goodge Street",
      "lat": 51.5205,
      "lng": -0.1347,
      "type": "tube_station",
      "coverage": {
        "walking": 10,
        "cycling": 107,
        "transit": 58.6,
        "driving": 39.3,
        "multimodal": 67.9
      },
      "zone": "central"
    },
    {
      "id": "russell-square",
      "name": "Russell Square",
      "lat": 51.523,
      "lng": -0.1244,
      "type": "tube_station",
      "coverage": {
        "walking": 10.1,
        "cycling": 111.8,
        "transit": 33.8,
        "driving": 39.5,
        "multimodal": 49.1
      },
      "zone": "central"
    },
    {
      "id": "embankment",
      "name": "Embankment",
      "lat": 51.5074,
      "lng": -0.1223,
      "type": "tube_station",
      "coverage": {
        "walking": 9.7,
        "cycling": 107.9,
        "transit": 51.7,
        "driving": 34.1,
        "multimodal": 56
      },
      "zone": "central"
    },
    {
      "id": "westminster",
      "name": "Westminster",
      "lat": 51.501,
      "lng": -0.1254,
      "type": "tube_station",
      "coverage": {
        "walking": 10.1,
        "cycling": 114,
        "transit": 48.1,
        "driving": 47.3,
        "multimodal": 62
      },
      "zone": "central"
    },
    {
      "id": "green-park",
      "name": "Green Park",
      "lat": 51.5067,
      "lng": -0.1428,
      "type": "tube_station",
      "coverage": {
        "walking": 11.2,
        "cycling": 116.6,
        "transit": 60.4,
        "driving": 55.7,
        "multimodal": 79.3
      },
      "zone": "central"
    },
    {
      "id": "bond-street",
      "name": "Bond Street",
      "lat": 51.5142,
      "lng": -0.1494,
      "type": "tube_station",
      "coverage": {
        "walking": 10.9,
        "cycling": 112,
        "transit": 82.6,
        "driving": 43.6,
        "multimodal": 85.5
      },
      "zone": "central"
    },
    {
      "id": "marble-arch",
      "name": "Marble Arch",
      "lat": 51.5136,
      "lng": -0.1586,
      "type": "tube_station",
      "coverage": {
        "walking": 11.7,
        "cycling": 111.9,
        "transit": 68.1,
        "driving": 66.7,
        "multimodal": 84.8
      },
      "zone": "central"
    },
    {
      "id": "hyde-park-corner",
      "name": "Hyde Park Corner",
      "lat": 51.5027,
      "lng": -0.1527,
      "type": "tube_station",
      "coverage": {
        "walking": 12.4,
        "cycling": 116.3,
        "transit": 60.9,
        "driving": 73.1,
        "multimodal": 94.3
      },
      "zone": "central"
    },
    {
      "id": "knightsbridge",
      "name": "Knightsbridge",
      "lat": 51.5015,
      "lng": -0.1607,
      "type": "tube_station",
      "coverage": {
        "walking": 12,
        "cycling": 114.2,
        "transit": 39.1,
        "driving": 72.7,
        "multimodal": 80.3
      },
      "zone": "central"
    },
    {
      "id": "sloane-square",
      "name": "Sloane Square",
      "lat": 51.4924,
      "lng": -0.1565,
      "type": "tube_station",
      "coverage": {
        "walking": 10.3,
        "cycling": 108.1,
        "transit": 38,
        "driving": 59.2,
        "multimodal": 64.2
      },
      "zone": "central"
    },
    {
      "id": "temple",
      "name": "Temple",
      "lat": 51.5111,
      "lng": -0.1141,
      "type": "tube_station",
      "coverage": {
        "walking": 10,
        "cycling": 110.4,
        "transit": 31.2,
        "driving": 34.4,
        "multimodal": 42.4
      },
      "zone": "central"
    },
    {
      "id": "blackfriars",
      "name": "Blackfriars",
      "lat": 51.512,
      "lng": -0.104,
      "type": "tube_station",
      "coverage": {
        "walking": 10.9,
        "cycling": 113.9,
        "transit": 57.7,
        "driving": 37.6,
        "multimodal": 64.4
      },
      "zone": "central"
    },
    {
      "id": "st-pauls",
      "name": "St Paul's",
      "lat": 51.5154,
      "lng": -0.0983,
      "type": "tube_station",
      "coverage": {
        "walking": 10,
        "cycling": 107.2,
        "transit": 45.4,
        "driving": 37.2,
        "multimodal": 54.4
      },
      "zone": "central"
    },
    {
      "id": "mansion-house",
      "name": "Mansion House",
      "lat": 51.5122,
      "lng": -0.094,
      "type": "tube_station",
      "coverage": {
        "walking": 11,
        "cycling": 115.8,
        "transit": 47.9,
        "driving": 35.5,
        "multimodal": 54.1
      },
      "zone": "central"
    },
    {
      "id": "cannon-street",
      "name": "Cannon Street",
      "lat": 51.5114,
      "lng": -0.0901,
      "type": "tube_station",
      "coverage": {
        "walking": 10.7,
        "cycling": 114.7,
        "transit": 63.4,
        "driving": 39.8,
        "multimodal": 69.2
      },
      "zone": "central"
    },
    {
      "id": "monument",
      "name": "Monument",
      "lat": 51.5108,
      "lng": -0.0863,
      "type": "tube_station",
      "coverage": {
        "walking": 11,
        "cycling": 116.5,
        "transit": 59.1,
        "driving": 46.7,
        "multimodal": 68.8
      },
      "zone": "central"
    },
    {
      "id": "tower-hill",
      "name": "Tower Hill",
      "lat": 51.5098,
      "lng": -0.0766,
      "type": "tube_station",
      "coverage": {
        "walking": 9.9,
        "cycling": 108.3,
        "transit": 35.4,
        "driving": 93.6,
        "multimodal": 101.3
      },
      "zone": "inner"
    },
    {
      "id": "aldgate",
      "name": "Aldgate",
      "lat": 51.5143,
      "lng": -0.0755,
      "type": "tube_station",
      "coverage": {
        "walking": 10.5,
        "cycling": 111.2,
        "transit": 46.7,
        "driving": 69.3,
        "multimodal": 85.5
      },
      "zone": "inner"
    },
    {
      "id": "aldgate-east",
      "name": "Aldgate East",
      "lat": 51.5152,
      "lng": -0.0715,
      "type": "tube_station",
      "coverage": {
        "walking": 10.5,
        "cycling": 107.1,
        "transit": 40.6,
        "driving": 81.2,
        "multimodal": 91.8
      },
      "zone": "inner"
    },
    {
      "id": "camden-town",
      "name": "Camden Town",
      "lat": 51.5392,
      "lng": -0.1426,
      "type": "tube_station",
      "coverage": {
        "walking": 11.5,
        "cycling": 116.3,
        "transit": 45.2,
        "driving": 53.6,
        "multimodal": 65.2
      },
      "zone": "inner"
    },
    {
      "id": "chalk-farm",
      "name": "Chalk Farm",
      "lat": 51.5441,
      "lng": -0.1538,
      "type": "tube_station",
      "coverage": {
        "walking": 11.5,
        "cycling": 117.5,
        "transit": 55,
        "driving": 84.3,
        "multimodal": 105.7
      },
      "zone": "inner"
    },
    {
      "id": "kentish-town",
      "name": "Kentish Town",
      "lat": 51.5507,
      "lng": -0.1406,
      "type": "tube_station",
      "coverage": {
        "walking": 11,
        "cycling": 117.1,
        "transit": 61.2,
        "driving": 77.1,
        "multimodal": 100.5
      },
      "zone": "inner"
    },
    {
      "id": "highgate",
      "name": "Highgate",
      "lat": 51.5777,
      "lng": -0.1466,
      "type": "tube_station",
      "coverage": {
        "walking": 12.5,
        "cycling": 140.7,
        "transit": 45.3,
        "driving": 143.8,
        "multimodal": 150.9
      },
      "zone": "inner"
    },
    {
      "id": "east-finchley",
      "name": "East Finchley",
      "lat": 51.5874,
      "lng": -0.165,
      "type": "tube_station",
      "coverage": {
        "walking": 11.4,
        "cycling": 139.4,
        "transit": 38.7,
        "driving": 193.3,
        "multimodal": 195.3
      },
      "zone": "mid"
    },
    {
      "id": "finchley-central",
      "name": "Finchley Central",
      "lat": 51.6012,
      "lng": -0.1927,
      "type": "tube_station",
      "coverage": {
        "walking": 11,
        "cycling": 139.4,
        "transit": 40.6,
        "driving": 335.4,
        "multimodal": 337.7
      },
      "zone": "mid"
    },
    {
      "id": "stockwell",
      "name": "Stockwell",
      "lat": 51.4723,
      "lng": -0.1228,
      "type": "tube_station",
      "coverage": {
        "walking": 10.6,
        "cycling": 110.8,
        "transit": 55,
        "driving": 64.7,
        "multimodal": 83.5
      },
      "zone": "inner"
    },
    {
      "id": "oval",
      "name": "Oval",
      "lat": 51.4819,
      "lng": -0.1132,
      "type": "tube_station",
      "coverage": {
        "walking": 10.8,
        "cycling": 108.2,
        "transit": 54.7,
        "driving": 60.7,
        "multimodal": 78.5
      },
      "zone": "inner"
    },
    {
      "id": "kennington",
      "name": "Kennington",
      "lat": 51.4884,
      "lng": -0.1053,
      "type": "tube_station",
      "coverage": {
        "walking": 10.2,
        "cycling": 104.9,
        "transit": 50.1,
        "driving": 55.9,
        "multimodal": 71
      },
      "zone": "central"
    },
    {
      "id": "elephant-and-castle",
      "name": "Elephant & Castle",
      "lat": 51.4943,
      "lng": -0.1001,
      "type": "tube_station",
      "coverage": {
        "walking": 10.3,
        "cycling": 106.7,
        "transit": 51.2,
        "driving": 50.3,
        "multimodal": 60.7
      },
      "zone": "central"
    },
    {
      "id": "borough",
      "name": "Borough",
      "lat": 51.5011,
      "lng": -0.0943,
      "type": "tube_station",
      "coverage": {
        "walking": 10.1,
        "cycling": 106.2,
        "transit": 40.6,
        "driving": 46,
        "multimodal": 56
      },
      "zone": "central"
    },
    {
      "id": "clapham-north",
      "name": "Clapham North",
      "lat": 51.4649,
      "lng": -0.1299,
      "type": "tube_station",
      "coverage": {
        "walking": 11.2,
        "cycling": 113.1,
        "transit": 58.7,
        "driving": 64.6,
        "multimodal": 82.4
      },
      "zone": "inner"
    },
    {
      "id": "clapham-common",
      "name": "Clapham Common",
      "lat": 51.4618,
      "lng": -0.1384,
      "type": "tube_station",
      "coverage": {
        "walking": 11.5,
        "cycling": 118,
        "transit": 56.4,
        "driving": 68.1,
        "multimodal": 83.1
      },
      "zone": "inner"
    },
    {
      "id": "clapham-south",
      "name": "Clapham South",
      "lat": 51.4527,
      "lng": -0.148,
      "type": "tube_station",
      "coverage": {
        "walking": 11.3,
        "cycling": 116.6,
        "transit": 45.3,
        "driving": 79.3,
        "multimodal": 90.6
      },
      "zone": "inner"
    },
    {
      "id": "balham",
      "name": "Balham",
      "lat": 51.4431,
      "lng": -0.1525,
      "type": "tube_station",
      "coverage": {
        "walking": 11.5,
        "cycling": 120.9,
        "transit": 70.5,
        "driving": 84.9,
        "multimodal": 103.9
      },
      "zone": "inner"
    },
    {
      "id": "highbury-islington",
      "name": "Highbury & Islington",
      "lat": 51.546,
      "lng": -0.104,
      "type": "tube_station",
      "coverage": {
        "walking": 11.1,
        "cycling": 113.4,
        "transit": 64.2,
        "driving": 53.8,
        "multimodal": 77
      },
      "zone": "inner"
    },
    {
      "id": "finsbury-park",
      "name": "Finsbury Park",
      "lat": 51.5642,
      "lng": -0.1065,
      "type": "tube_station",
      "coverage": {
        "walking": 10.9,
        "cycling": 123.7,
        "transit": 58.8,
        "driving": 70,
        "multimodal": 85.3
      },
      "zone": "inner"
    },
    {
      "id": "seven-sisters",
      "name": "Seven Sisters",
      "lat": 51.5822,
      "lng": -0.0749,
      "type": "tube_station",
      "coverage": {
        "walking": 10.2,
        "cycling": 126.4,
        "transit": 63.6,
        "driving": 84.2,
        "multimodal": 102.1
      },
      "zone": "mid"
    },
    {
      "id": "tottenham-hale",
      "name": "Tottenham Hale",
      "lat": 51.5882,
      "lng": -0.0594,
      "type": "tube_station",
      "coverage": {
        "walking": 9.5,
        "cycling": 131.8,
        "transit": 57.5,
        "driving": 68.4,
        "multimodal": 87.7
      },
      "zone": "mid"
    },
    {
      "id": "walthamstow-central",
      "name": "Walthamstow Central",
      "lat": 51.583,
      "lng": -0.0197,
      "type": "tube_station",
      "coverage": {
        "walking": 10.6,
        "cycling": 127.3,
        "transit": 38.2,
        "driving": 103.9,
        "multimodal": 110.1
      },
      "zone": "mid"
    },
    {
      "id": "south-kensington",
      "name": "South Kensington",
      "lat": 51.4941,
      "lng": -0.1738,
      "type": "tube_station",
      "coverage": {
        "walking": 10.7,
        "cycling": 112.4,
        "transit": 33.1,
        "driving": 85.9,
        "multimodal": 90.1
      },
      "zone": "inner"
    },
    {
      "id": "gloucester-road",
      "name": "Gloucester Road",
      "lat": 51.4945,
      "lng": -0.1829,
      "type": "tube_station",
      "coverage": {
        "walking": 10.7,
        "cycling": 114.3,
        "transit": 36.9,
        "driving": 116.8,
        "multimodal": 122.8
      },
      "zone": "inner"
    },
    {
      "id": "earls-court",
      "name": "Earl's Court",
      "lat": 51.4914,
      "lng": -0.1934,
      "type": "tube_station",
      "coverage": {
        "walking": 10.2,
        "cycling": 107.1,
        "transit": 28.7,
        "driving": 175.5,
        "multimodal": 180.3
      },
      "zone": "inner"
    },
    {
      "id": "hammersmith",
      "name": "Hammersmith",
      "lat": 51.4927,
      "lng": -0.2246,
      "type": "tube_station",
      "coverage": {
        "walking": 11,
        "cycling": 123,
        "transit": 33.9,
        "driving": 136.6,
        "multimodal": 139.8
      },
      "zone": "inner"
    },
    {
      "id": "barons-court",
      "name": "Baron's Court",
      "lat": 51.4903,
      "lng": -0.2139,
      "type": "tube_station",
      "coverage": {
        "walking": 9.9,
        "cycling": 116.3,
        "transit": 22,
        "driving": 265.8,
        "multimodal": 270.6
      },
      "zone": "inner"
    },
    {
      "id": "turnham-green",
      "name": "Turnham Green",
      "lat": 51.4951,
      "lng": -0.2547,
      "type": "tube_station",
      "coverage": {
        "walking": 9.9,
        "cycling": 120.1,
        "transit": 22.1,
        "driving": 238.1,
        "multimodal": 243
      },
      "zone": "mid"
    },
    {
      "id": "acton-town",
      "name": "Acton Town",
      "lat": 51.5028,
      "lng": -0.2801,
      "type": "tube_station",
      "coverage": {
        "walking": 11.2,
        "cycling": 133.4,
        "transit": 27.6,
        "driving": 367.4,
        "multimodal": 373.8
      },
      "zone": "mid"
    },
    {
      "id": "caledonian-road",
      "name": "Caledonian Road",
      "lat": 51.5481,
      "lng": -0.1188,
      "type": "tube_station",
      "coverage": {
        "walking": 5.8,
        "cycling": 93.6,
        "transit": 26.7,
        "driving": 62.8,
        "multimodal": 68.8
      },
      "zone": "inner"
    },
    {
      "id": "arsenal",
      "name": "Arsenal",
      "lat": 51.5586,
      "lng": -0.1059,
      "type": "tube_station",
      "coverage": {
        "walking": 10,
        "cycling": 114.4,
        "transit": 31.8,
        "driving": 35.6,
        "multimodal": 46.8
      },
      "zone": "inner"
    },
    {
      "id": "manor-house",
      "name": "Manor House",
      "lat": 51.5712,
      "lng": -0.0958,
      "type": "tube_station",
      "coverage": {
        "walking": 11.5,
        "cycling": 127.3,
        "transit": 51.9,
        "driving": 69.1,
        "multimodal": 77.1
      },
      "zone": "inner"
    },
    {
      "id": "turnpike-lane",
      "name": "Turnpike Lane",
      "lat": 51.5904,
      "lng": -0.1028,
      "type": "tube_station",
      "coverage": {
        "walking": 11.4,
        "cycling": 122.7,
        "transit": 54.4,
        "driving": 109.2,
        "multimodal": 122.1
      },
      "zone": "mid"
    },
    {
      "id": "wood-green",
      "name": "Wood Green",
      "lat": 51.5975,
      "lng": -0.1097,
      "type": "tube_station",
      "coverage": {
        "walking": 11,
        "cycling": 121.3,
        "transit": 48.5,
        "driving": 150.4,
        "multimodal": 160
      },
      "zone": "mid"
    },
    {
      "id": "notting-hill-gate",
      "name": "Notting Hill Gate",
      "lat": 51.5094,
      "lng": -0.1967,
      "type": "tube_station",
      "coverage": {
        "walking": 9.6,
        "cycling": 106.2,
        "transit": 40.8,
        "driving": 113.4,
        "multimodal": 118
      },
      "zone": "inner"
    },
    {
      "id": "holland-park",
      "name": "Holland Park",
      "lat": 51.5075,
      "lng": -0.206,
      "type": "tube_station",
      "coverage": {
        "walking": 10.3,
        "cycling": 110.3,
        "transit": 34.6,
        "driving": 104,
        "multimodal": 109.4
      },
      "zone": "inner"
    },
    {
      "id": "shepherds-bush",
      "name": "Shepherd's Bush",
      "lat": 51.5046,
      "lng": -0.2187,
      "type": "tube_station",
      "coverage": {
        "walking": 10.4,
        "cycling": 110.5,
        "transit": 69,
        "driving": 198.7,
        "multimodal": 205.6
      },
      "zone": "inner"
    },
    {
      "id": "white-city",
      "name": "White City",
      "lat": 51.512,
      "lng": -0.2244,
      "type": "tube_station",
      "coverage": {
        "walking": 9.6,
        "cycling": 113.9,
        "transit": 35.3,
        "driving": 171,
        "multimodal": 175.5
      },
      "zone": "inner"
    },
    {
      "id": "east-acton",
      "name": "East Acton",
      "lat": 51.5168,
      "lng": -0.2474,
      "type": "tube_station",
      "coverage": {
        "walking": 7.5,
        "cycling": 114.9,
        "transit": 40,
        "driving": 214.8,
        "multimodal": 217.9
      },
      "zone": "mid"
    },
    {
      "id": "north-acton",
      "name": "North Acton",
      "lat": 51.5237,
      "lng": -0.2597,
      "type": "tube_station",
      "coverage": {
        "walking": 9.5,
        "cycling": 131.3,
        "transit": 46.2,
        "driving": 264.2,
        "multimodal": 266.8
      },
      "zone": "mid"
    },
    {
      "id": "bethnal-green",
      "name": "Bethnal Green",
      "lat": 51.527,
      "lng": -0.0549,
      "type": "tube_station",
      "coverage": {
        "walking": 11.4,
        "cycling": 106.7,
        "transit": 61.1,
        "driving": 88.4,
        "multimodal": 120.3
      },
      "zone": "inner"
    },
    {
      "id": "leyton",
      "name": "Leyton",
      "lat": 51.5566,
      "lng": -0.0053,
      "type": "tube_station",
      "coverage": {
        "walking": 10.4,
        "cycling": 126.2,
        "transit": 48.2,
        "driving": 76.2,
        "multimodal": 89.9
      },
      "zone": "mid"
    },
    {
      "id": "leytonstone",
      "name": "Leytonstone",
      "lat": 51.5683,
      "lng": 0.0083,
      "type": "tube_station",
      "coverage": {
        "walking": 11.5,
        "cycling": 131.9,
        "transit": 53.4,
        "driving": 306.3,
        "multimodal": 313.4
      },
      "zone": "mid"
    },
    {
      "id": "lancaster-gate",
      "name": "Lancaster Gate",
      "lat": 51.5119,
      "lng": -0.1756,
      "type": "tube_station",
      "coverage": {
        "walking": 10.6,
        "cycling": 110.4,
        "transit": 53.9,
        "driving": 89.8,
        "multimodal": 102.6
      },
      "zone": "inner"
    },
    {
      "id": "queensway",
      "name": "Queensway",
      "lat": 51.5107,
      "lng": -0.1871,
      "type": "tube_station",
      "coverage": {
        "walking": 11.4,
        "cycling": 115.1,
        "transit": 56.9,
        "driving": 121.3,
        "multimodal": 134.3
      },
      "zone": "inner"
    },
    {
      "id": "west-ham",
      "name": "West Ham",
      "lat": 51.5287,
      "lng": 0.0056,
      "type": "tube_station",
      "coverage": {
        "walking": 10.3,
        "cycling": 109.3,
        "transit": 38.4,
        "driving": 153.8,
        "multimodal": 158.3
      },
      "zone": "mid"
    },
    {
      "id": "plaistow",
      "name": "Plaistow",
      "lat": 51.5313,
      "lng": 0.0172,
      "type": "tube_station",
      "coverage": {
        "walking": 10.6,
        "cycling": 109.2,
        "transit": 38.6,
        "driving": 156.6,
        "multimodal": 160.6
      },
      "zone": "mid"
    },
    {
      "id": "east-ham",
      "name": "East Ham",
      "lat": 51.5394,
      "lng": 0.0518,
      "type": "tube_station",
      "coverage": {
        "walking": 10.1,
        "cycling": 102.4,
        "transit": 37.2,
        "driving": 118.9,
        "multimodal": 121.9
      },
      "zone": "mid"
    },
    {
      "id": "barking",
      "name": "Barking",
      "lat": 51.5396,
      "lng": 0.0809,
      "type": "tube_station",
      "coverage": {
        "walking": 8.1,
        "cycling": 105.3,
        "transit": 50,
        "driving": 209.1,
        "multimodal": 219.1
      },
      "zone": "mid"
    },
    {
      "id": "putney-bridge",
      "name": "Putney Bridge",
      "lat": 51.4682,
      "lng": -0.2089,
      "type": "tube_station",
      "coverage": {
        "walking": 10.1,
        "cycling": 122.8,
        "transit": 28.8,
        "driving": 112.4,
        "multimodal": 115
      },
      "zone": "inner"
    },
    {
      "id": "parsons-green",
      "name": "Parsons Green",
      "lat": 51.4753,
      "lng": -0.2013,
      "type": "tube_station",
      "coverage": {
        "walking": 8.7,
        "cycling": 119.8,
        "transit": 19.3,
        "driving": 119.6,
        "multimodal": 122.3
      },
      "zone": "inner"
    },
    {
      "id": "fulham-broadway",
      "name": "Fulham Broadway",
      "lat": 51.48,
      "lng": -0.1952,
      "type": "tube_station",
      "coverage": {
        "walking": 9.4,
        "cycling": 114.9,
        "transit": 27,
        "driving": 110.8,
        "multimodal": 113
      },
      "zone": "inner"
    },
    {
      "id": "west-brompton",
      "name": "West Brompton",
      "lat": 51.4872,
      "lng": -0.1953,
      "type": "tube_station",
      "coverage": {
        "walking": 10.6,
        "cycling": 112.4,
        "transit": 25.5,
        "driving": 169.4,
        "multimodal": 174.4
      },
      "zone": "inner"
    },
    {
      "id": "wimbledon",
      "name": "Wimbledon",
      "lat": 51.4214,
      "lng": -0.2064,
      "type": "tube_station",
      "coverage": {
        "walking": 10.9,
        "cycling": 140,
        "transit": 50.9,
        "driving": 101.7,
        "multimodal": 114
      },
      "zone": "mid"
    },
    {
      "id": "east-putney",
      "name": "East Putney",
      "lat": 51.459,
      "lng": -0.2112,
      "type": "tube_station",
      "coverage": {
        "walking": 8.5,
        "cycling": 123.6,
        "transit": 24.3,
        "driving": 163.6,
        "multimodal": 165.9
      },
      "zone": "inner"
    },
    {
      "id": "southfields",
      "name": "Southfields",
      "lat": 51.4454,
      "lng": -0.2066,
      "type": "tube_station",
      "coverage": {
        "walking": 11,
        "cycling": 128.9,
        "transit": 23.5,
        "driving": 174.4,
        "multimodal": 177.9
      },
      "zone": "mid"
    },
    {
      "id": "wimbledon-park",
      "name": "Wimbledon Park",
      "lat": 51.4343,
      "lng": -0.1992,
      "type": "tube_station",
      "coverage": {
        "walking": 8.9,
        "cycling": 127.1,
        "transit": 18.8,
        "driving": 93.2,
        "multimodal": 96.4
      },
      "zone": "mid"
    },
    {
      "id": "canary-wharf",
      "name": "Canary Wharf",
      "lat": 51.5055,
      "lng": -0.0196,
      "type": "tube_station",
      "coverage": {
        "walking": 7.2,
        "cycling": 104.4,
        "transit": 79.3,
        "driving": 261.5,
        "multimodal": 292.9
      },
      "zone": "inner"
    },
    {
      "id": "canada-water",
      "name": "Canada Water",
      "lat": 51.4982,
      "lng": -0.0502,
      "type": "tube_station",
      "coverage": {
        "walking": 6.6,
        "cycling": 81.9,
        "transit": 53.9,
        "driving": 94.2,
        "multimodal": 107.5
      },
      "zone": "inner"
    },
    {
      "id": "bermondsey",
      "name": "Bermondsey",
      "lat": 51.4979,
      "lng": -0.0637,
      "type": "tube_station",
      "coverage": {
        "walking": 8.1,
        "cycling": 95.3,
        "transit": 38.2,
        "driving": 99,
        "multimodal": 110.3
      },
      "zone": "inner"
    },
    {
      "id": "southwark",
      "name": "Southwark",
      "lat": 51.504,
      "lng": -0.105,
      "type": "tube_station",
      "coverage": {
        "walking": 10.4,
        "cycling": 108.8,
        "transit": 49.2,
        "driving": 41.4,
        "multimodal": 57.6
      },
      "zone": "central"
    },
    {
      "id": "north-greenwich",
      "name": "North Greenwich",
      "lat": 51.5005,
      "lng": 0.0039,
      "type": "tube_station",
      "coverage": {
        "walking": 2.6,
        "cycling": 57.5,
        "transit": 43.3,
        "driving": 68.2,
        "multimodal": 90.8
      },
      "zone": "mid"
    },
    {
      "id": "west-hampstead",
      "name": "West Hampstead",
      "lat": 51.5469,
      "lng": -0.191,
      "type": "tube_station",
      "coverage": {
        "walking": 11.5,
        "cycling": 126.6,
        "transit": 61.9,
        "driving": 164,
        "multimodal": 170.6
      },
      "zone": "inner"
    },
    {
      "id": "kilburn",
      "name": "Kilburn",
      "lat": 51.5471,
      "lng": -0.2047,
      "type": "tube_station",
      "coverage": {
        "walking": 10.1,
        "cycling": 123.2,
        "transit": 38.4,
        "driving": 155.5,
        "multimodal": 158.6
      },
      "zone": "inner"
    },
    {
      "id": "swiss-cottage",
      "name": "Swiss Cottage",
      "lat": 51.5432,
      "lng": -0.1743,
      "type": "tube_station",
      "coverage": {
        "walking": 12.1,
        "cycling": 127.9,
        "transit": 50.4,
        "driving": 123.2,
        "multimodal": 137.4
      },
      "zone": "inner"
    },
    {
      "id": "queens-park",
      "name": "Queen's Park",
      "lat": 51.5341,
      "lng": -0.2047,
      "type": "tube_station",
      "coverage": {
        "walking": 10.7,
        "cycling": 117.7,
        "transit": 28.8,
        "driving": 107.9,
        "multimodal": 110.5
      },
      "zone": "inner"
    },
    {
      "id": "kensal-green",
      "name": "Kensal Green",
      "lat": 51.5304,
      "lng": -0.2249,
      "type": "tube_station",
      "coverage": {
        "walking": 9.3,
        "cycling": 117.8,
        "transit": 26.8,
        "driving": 88.6,
        "multimodal": 90.1
      },
      "zone": "inner"
    },
    {
      "id": "willesden-junction",
      "name": "Willesden Junction",
      "lat": 51.5326,
      "lng": -0.2444,
      "type": "tube_station",
      "coverage": {
        "walking": 9.6,
        "cycling": 127.1,
        "transit": 36.4,
        "driving": 142.9,
        "multimodal": 147.5
      },
      "zone": "mid"
    },
    {
      "id": "harlesden",
      "name": "Harlesden",
      "lat": 51.5362,
      "lng": -0.2575,
      "type": "tube_station",
      "coverage": {
        "walking": 9.8,
        "cycling": 131.3,
        "transit": 34.2,
        "driving": 217,
        "multimodal": 218.5
      },
      "zone": "mid"
    },
    {
      "id": "stonebridge-park",
      "name": "Stonebridge Park",
      "lat": 51.544,
      "lng": -0.2759,
      "type": "tube_station",
      "coverage": {
        "walking": 10.2,
        "cycling": 133.2,
        "transit": 43.5,
        "driving": 450.7,
        "multimodal": 458.5
      },
      "zone": "mid"
    },
    {
      "id": "wembley-central",
      "name": "Wembley Central",
      "lat": 51.5522,
      "lng": -0.2963,
      "type": "tube_station",
      "coverage": {
        "walking": 10.1,
        "cycling": 132.1,
        "transit": 42.5,
        "driving": 187.6,
        "multimodal": 193.2
      },
      "zone": "mid"
    },
    {
      "id": "maida-vale",
      "name": "Maida Vale",
      "lat": 51.5298,
      "lng": -0.1854,
      "type": "tube_station",
      "coverage": {
        "walking": 10.2,
        "cycling": 113.3,
        "transit": 29.7,
        "driving": 111.7,
        "multimodal": 117.4
      },
      "zone": "inner"
    },
    {
      "id": "warwick-avenue",
      "name": "Warwick Avenue",
      "lat": 51.5235,
      "lng": -0.1835,
      "type": "tube_station",
      "coverage": {
        "walking": 10.8,
        "cycling": 117.3,
        "transit": 43.8,
        "driving": 115.9,
        "multimodal": 125.1
      },
      "zone": "inner"
    },
    {
      "id": "edgware-road-bakerloo",
      "name": "Edgware Road",
      "lat": 51.5199,
      "lng": -0.1679,
      "type": "tube_station",
      "coverage": {
        "walking": 10.8,
        "cycling": 112.4,
        "transit": 38.2,
        "driving": 152,
        "multimodal": 155.9
      },
      "zone": "inner"
    },
    {
      "id": "lambeth-north",
      "name": "Lambeth North",
      "lat": 51.4986,
      "lng": -0.1115,
      "type": "tube_station",
      "coverage": {
        "walking": 10.3,
        "cycling": 108.2,
        "transit": 43.3,
        "driving": 48.9,
        "multimodal": 57.1
      },
      "zone": "central"
    },
    {
      "id": "shoreditch-high-street",
      "name": "Shoreditch High Street",
      "lat": 51.5234,
      "lng": -0.0756,
      "type": "rail_station",
      "coverage": {
        "walking": 11,
        "cycling": 107.4,
        "transit": 60.4,
        "driving": 55.8,
        "multimodal": 69.7
      },
      "zone": "inner"
    },
    {
      "id": "dalston-junction",
      "name": "Dalston Junction",
      "lat": 51.5462,
      "lng": -0.0753,
      "type": "rail_station",
      "coverage": {
        "walking": 11.6,
        "cycling": 117.4,
        "transit": 46.9,
        "driving": 62.5,
        "multimodal": 69.7
      },
      "zone": "inner"
    },
    {
      "id": "homerton",
      "name": "Homerton",
      "lat": 51.5468,
      "lng": -0.0394,
      "type": "rail_station",
      "coverage": {
        "walking": 9.9,
        "cycling": 112.1,
        "transit": 20,
        "driving": 370.5,
        "multimodal": 373.5
      },
      "zone": "inner"
    },
    {
      "id": "whitechapel",
      "name": "Whitechapel",
      "lat": 51.5194,
      "lng": -0.0612,
      "type": "tube_station",
      "coverage": {
        "walking": 10.3,
        "cycling": 100.5,
        "transit": 115.3,
        "driving": 84.4,
        "multimodal": 139.8
      },
      "zone": "inner"
    },
    {
      "id": "shadwell",
      "name": "Shadwell",
      "lat": 51.5117,
      "lng": -0.0566,
      "type": "tube_station",
      "coverage": {
        "walking": 8.1,
        "cycling": 105.8,
        "transit": 73.1,
        "driving": 133.3,
        "multimodal": 159.3
      },
      "zone": "inner"
    },
    {
      "id": "wapping",
      "name": "Wapping",
      "lat": 51.5043,
      "lng": -0.0559,
      "type": "tube_station",
      "coverage": {
        "walking": 4.8,
        "cycling": 93.6,
        "transit": 47.6,
        "driving": 171.3,
        "multimodal": 187.1
      },
      "zone": "inner"
    },
    {
      "id": "rotherhithe",
      "name": "Rotherhithe",
      "lat": 51.501,
      "lng": -0.0525,
      "type": "tube_station",
      "coverage": {
        "walking": 6.9,
        "cycling": 82.5,
        "transit": 54.6,
        "driving": 143.4,
        "multimodal": 158.6
      },
      "zone": "inner"
    },
    {
      "id": "surrey-quays",
      "name": "Surrey Quays",
      "lat": 51.4933,
      "lng": -0.0478,
      "type": "tube_station",
      "coverage": {
        "walking": 8.2,
        "cycling": 90.1,
        "transit": 36.3,
        "driving": 67.7,
        "multimodal": 73.8
      },
      "zone": "inner"
    },
    {
      "id": "new-cross",
      "name": "New Cross",
      "lat": 51.4767,
      "lng": -0.0325,
      "type": "rail_station",
      "coverage": {
        "walking": 9,
        "cycling": 102.7,
        "transit": 41.9,
        "driving": 90.1,
        "multimodal": 99.9
      },
      "zone": "inner"
    },
    {
      "id": "new-cross-gate",
      "name": "New Cross Gate",
      "lat": 51.4753,
      "lng": -0.0404,
      "type": "rail_station",
      "coverage": {
        "walking": 10.9,
        "cycling": 102.7,
        "transit": 49.9,
        "driving": 84.4,
        "multimodal": 88.5
      },
      "zone": "inner"
    },
    {
      "id": "peckham-rye",
      "name": "Peckham Rye",
      "lat": 51.47,
      "lng": -0.0693,
      "type": "rail_station",
      "coverage": {
        "walking": 11.4,
        "cycling": 106,
        "transit": 33.7,
        "driving": 65.3,
        "multimodal": 68.5
      },
      "zone": "inner"
    },
    {
      "id": "denmark-hill",
      "name": "Denmark Hill",
      "lat": 51.4684,
      "lng": -0.0889,
      "type": "rail_station",
      "coverage": {
        "walking": 10.6,
        "cycling": 106.2,
        "transit": 27.5,
        "driving": 74.1,
        "multimodal": 75.8
      },
      "zone": "inner"
    },
    {
      "id": "clapham-junction",
      "name": "Clapham Junction",
      "lat": 51.4641,
      "lng": -0.1703,
      "type": "rail_station",
      "coverage": {
        "walking": 9.9,
        "cycling": 119.7,
        "transit": 66,
        "driving": 84.1,
        "multimodal": 106.4
      },
      "zone": "inner"
    },
    {
      "id": "crystal-palace",
      "name": "Crystal Palace",
      "lat": 51.4184,
      "lng": -0.0726,
      "type": "rail_station",
      "coverage": {
        "walking": 11.2,
        "cycling": 134.5,
        "transit": 30,
        "driving": 127.5,
        "multimodal": 129.6
      },
      "zone": "mid"
    },
    {
      "id": "honor-oak-park",
      "name": "Honor Oak Park",
      "lat": 51.45,
      "lng": -0.0453,
      "type": "rail_station",
      "coverage": {
        "walking": 11,
        "cycling": 117.7,
        "transit": 37.4,
        "driving": 111.8,
        "multimodal": 115.7
      },
      "zone": "mid"
    },
    {
      "id": "greenwich",
      "name": "Greenwich",
      "lat": 51.4781,
      "lng": -0.0149,
      "type": "rail_station",
      "coverage": {
        "walking": 9.5,
        "cycling": 109.3,
        "transit": 36.3,
        "driving": 64.2,
        "multimodal": 76.7
      },
      "zone": "mid"
    },
    {
      "id": "deptford-bridge",
      "name": "Deptford Bridge",
      "lat": 51.474,
      "lng": -0.0219,
      "type": "rail_station",
      "coverage": {
        "walking": 10.7,
        "cycling": 112.6,
        "transit": 42,
        "driving": 126.7,
        "multimodal": 132.1
      },
      "zone": "mid"
    },
    {
      "id": "lewisham",
      "name": "Lewisham",
      "lat": 51.4657,
      "lng": -0.0142,
      "type": "rail_station",
      "coverage": {
        "walking": 10.7,
        "cycling": 109.2,
        "transit": 59.4,
        "driving": 80,
        "multimodal": 95.8
      },
      "zone": "mid"
    },
    {
      "id": "cutty-sark",
      "name": "Cutty Sark",
      "lat": 51.4827,
      "lng": -0.0101,
      "type": "rail_station",
      "coverage": {
        "walking": 10.2,
        "cycling": 116.3,
        "transit": 30.9,
        "driving": 80.2,
        "multimodal": 86.1
      },
      "zone": "mid"
    },
    {
      "id": "island-gardens",
      "name": "Island Gardens",
      "lat": 51.4871,
      "lng": -0.0095,
      "type": "rail_station",
      "coverage": {
        "walking": 7.8,
        "cycling": 114,
        "transit": 19.8,
        "driving": 97.6,
        "multimodal": 108.5
      },
      "zone": "mid"
    },
    {
      "id": "limehouse",
      "name": "Limehouse",
      "lat": 51.5123,
      "lng": -0.0396,
      "type": "rail_station",
      "coverage": {
        "walking": 9.4,
        "cycling": 106,
        "transit": 51.4,
        "driving": 264.5,
        "multimodal": 272.7
      },
      "zone": "inner"
    },
    {
      "id": "bow-church",
      "name": "Bow Church",
      "lat": 51.5269,
      "lng": -0.0208,
      "type": "rail_station",
      "coverage": {
        "walking": 9.8,
        "cycling": 102.9,
        "transit": 34.3,
        "driving": 302.1,
        "multimodal": 305.6
      },
      "zone": "inner"
    },
    {
      "id": "poplar",
      "name": "Poplar",
      "lat": 51.5077,
      "lng": -0.0173,
      "type": "rail_station",
      "coverage": {
        "walking": 7.3,
        "cycling": 105.4,
        "transit": 49.4,
        "driving": 355.7,
        "multimodal": 365.8
      },
      "zone": "inner"
    },
    {
      "id": "canning-town",
      "name": "Canning Town",
      "lat": 51.5147,
      "lng": 0.0083,
      "type": "tube_station",
      "coverage": {
        "walking": 9.8,
        "cycling": 105.2,
        "transit": 56.5,
        "driving": 379.3,
        "multimodal": 387.8
      },
      "zone": "mid"
    },
    {
      "id": "royal-victoria",
      "name": "Royal Victoria",
      "lat": 51.5091,
      "lng": 0.0181,
      "type": "rail_station",
      "coverage": {
        "walking": 7.2,
        "cycling": 93.6,
        "transit": 37.9,
        "driving": 270.7,
        "multimodal": 280.6
      },
      "zone": "mid"
    },
    {
      "id": "custom-house",
      "name": "Custom House",
      "lat": 51.5095,
      "lng": 0.0276,
      "type": "rail_station",
      "coverage": {
        "walking": 7.1,
        "cycling": 89.3,
        "transit": 59.2,
        "driving": 208.7,
        "multimodal": 231.1
      },
      "zone": "mid"
    },
    {
      "id": "tulse-hill",
      "name": "Tulse Hill",
      "lat": 51.4398,
      "lng": -0.1038,
      "type": "rail_station",
      "coverage": {
        "walking": 10.5,
        "cycling": 117.9,
        "transit": 29.3,
        "driving": 87.1,
        "multimodal": 90
      },
      "zone": "inner"
    },
    {
      "id": "streatham",
      "name": "Streatham",
      "lat": 51.4254,
      "lng": -0.131,
      "type": "rail_station",
      "coverage": {
        "walking": 10.9,
        "cycling": 125.8,
        "transit": 32.7,
        "driving": 105.4,
        "multimodal": 107
      },
      "zone": "mid"
    },
    {
      "id": "norwood-junction",
      "name": "Norwood Junction",
      "lat": 51.397,
      "lng": -0.075,
      "type": "rail_station",
      "coverage": {
        "walking": 11.1,
        "cycling": 130.5,
        "transit": 40.7,
        "driving": 160.7,
        "multimodal": 164.8
      },
      "zone": "mid"
    },
    {
      "id": "east-dulwich",
      "name": "East Dulwich",
      "lat": 51.4614,
      "lng": -0.0817,
      "type": "rail_station",
      "coverage": {
        "walking": 8.8,
        "cycling": 99.5,
        "transit": 14.3,
        "driving": 60.4,
        "multimodal": 60.5
      },
      "zone": "inner"
    },
    {
      "id": "south-bermondsey",
      "name": "South Bermondsey",
      "lat": 51.4877,
      "lng": -0.0534,
      "type": "rail_station",
      "coverage": {
        "walking": 9.4,
        "cycling": 91.4,
        "transit": 11.5,
        "driving": 61.3,
        "multimodal": 62.4
      },
      "zone": "inner"
    },
    {
      "id": "catford",
      "name": "Catford",
      "lat": 51.4445,
      "lng": -0.0251,
      "type": "rail_station",
      "coverage": {
        "walking": 12.1,
        "cycling": 121.2,
        "transit": 54.1,
        "driving": 117.5,
        "multimodal": 123.3
      },
      "zone": "mid"
    },
    {
      "id": "sydenham",
      "name": "Sydenham",
      "lat": 51.4272,
      "lng": -0.0548,
      "type": "rail_station",
      "coverage": {
        "walking": 10,
        "cycling": 121.9,
        "transit": 33.4,
        "driving": 119.5,
        "multimodal": 121.4
      },
      "zone": "mid"
    },
    {
      "id": "chiswick-park",
      "name": "Chiswick Park",
      "lat": 51.4946,
      "lng": -0.2678,
      "type": "tube_station",
      "coverage": {
        "walking": 10,
        "cycling": 119.8,
        "transit": 24.1,
        "driving": 261.3,
        "multimodal": 267.6
      },
      "zone": "mid"
    },
    {
      "id": "gunnersbury",
      "name": "Gunnersbury",
      "lat": 51.4915,
      "lng": -0.2752,
      "type": "tube_station",
      "coverage": {
        "walking": 9.9,
        "cycling": 124.8,
        "transit": 30.4,
        "driving": 275.9,
        "multimodal": 282.8
      },
      "zone": "mid"
    },
    {
      "id": "kew-gardens",
      "name": "Kew Gardens",
      "lat": 51.477,
      "lng": -0.2854,
      "type": "tube_station",
      "coverage": {
        "walking": 8.2,
        "cycling": 132.7,
        "transit": 22.4,
        "driving": 270.5,
        "multimodal": 275.1
      },
      "zone": "mid"
    },
    {
      "id": "richmond",
      "name": "Richmond",
      "lat": 51.4631,
      "lng": -0.3013,
      "type": "tube_station",
      "coverage": {
        "walking": 10.1,
        "cycling": 141,
        "transit": 46,
        "driving": 166.5,
        "multimodal": 173.2
      },
      "zone": "mid"
    },
    {
      "id": "golders-green",
      "name": "Golders Green",
      "lat": 51.5724,
      "lng": -0.1941,
      "type": "tube_station",
      "coverage": {
        "walking": 11,
        "cycling": 131.2,
        "transit": 51,
        "driving": 312,
        "multimodal": 317.1
      },
      "zone": "mid"
    },
    {
      "id": "colindale",
      "name": "Colindale",
      "lat": 51.5955,
      "lng": -0.2498,
      "type": "tube_station",
      "coverage": {
        "walking": 9.9,
        "cycling": 118.1,
        "transit": 41.8,
        "driving": 303.4,
        "multimodal": 305.9
      },
      "zone": "mid"
    },
    {
      "id": "edgware",
      "name": "Edgware",
      "lat": 51.6137,
      "lng": -0.275,
      "type": "tube_station",
      "coverage": {
        "walking": 4.2,
        "cycling": 105.3,
        "transit": 38.9,
        "driving": 443.2,
        "multimodal": 448.7
      },
      "zone": "outer"
    },
    {
      "id": "belsize-park",
      "name": "Belsize Park",
      "lat": 51.5504,
      "lng": -0.1642,
      "type": "tube_station",
      "coverage": {
        "walking": 10.9,
        "cycling": 123.4,
        "transit": 33.8,
        "driving": 115.9,
        "multimodal": 124.5
      },
      "zone": "inner"
    },
    {
      "id": "hampstead",
      "name": "Hampstead",
      "lat": 51.5568,
      "lng": -0.178,
      "type": "tube_station",
      "coverage": {
        "walking": 11.8,
        "cycling": 135.7,
        "transit": 33.1,
        "driving": 178,
        "multimodal": 183.6
      },
      "zone": "inner"
    },
    {
      "id": "harrow-on-the-hill",
      "name": "Harrow-on-the-Hill",
      "lat": 51.5793,
      "lng": -0.337,
      "type": "tube_station",
      "coverage": {
        "walking": 10.8,
        "cycling": 136.6,
        "transit": 46.3,
        "driving": 112,
        "multimodal": 116.2
      },
      "zone": "outer"
    },
    {
      "id": "northwick-park",
      "name": "Northwick Park",
      "lat": 51.5784,
      "lng": -0.3184,
      "type": "tube_station",
      "coverage": {
        "walking": 10.6,
        "cycling": 130.6,
        "transit": 50.7,
        "driving": 135.4,
        "multimodal": 144.1
      },
      "zone": "outer"
    },
    {
      "id": "wembley-park",
      "name": "Wembley Park",
      "lat": 51.5635,
      "lng": -0.2795,
      "type": "tube_station",
      "coverage": {
        "walking": 11,
        "cycling": 132.7,
        "transit": 42.7,
        "driving": 231.2,
        "multimodal": 234.1
      },
      "zone": "mid"
    },
    {
      "id": "neasden",
      "name": "Neasden",
      "lat": 51.5543,
      "lng": -0.2503,
      "type": "tube_station",
      "coverage": {
        "walking": 11.1,
        "cycling": 136,
        "transit": 35.6,
        "driving": 421.5,
        "multimodal": 424.4
      },
      "zone": "mid"
    },
    {
      "id": "dollis-hill",
      "name": "Dollis Hill",
      "lat": 51.552,
      "lng": -0.2387,
      "type": "tube_station",
      "coverage": {
        "walking": 10.4,
        "cycling": 123,
        "transit": 38.4,
        "driving": 290.6,
        "multimodal": 294.8
      },
      "zone": "mid"
    },
    {
      "id": "tfl-acton-central",
      "name": "Acton Central",
      "lat": 51.50862,
      "lng": -0.26351,
      "type": "tube_station",
      "coverage": {
        "walking": 11,
        "cycling": 126.2,
        "transit": 18.4,
        "driving": 231.9,
        "multimodal": 234
      },
      "zone": "mid"
    },
    {
      "id": "tfl-anerley",
      "name": "Anerley",
      "lat": 51.41221,
      "lng": -0.06544,
      "type": "tube_station",
      "coverage": {
        "walking": 10.5,
        "cycling": 129.5,
        "transit": 33.1,
        "driving": 158.6,
        "multimodal": 160
      },
      "zone": "mid"
    },
    {
      "id": "tfl-blackhorse-rd",
      "name": "Blackhorse Road",
      "lat": 51.58699,
      "lng": -0.04058,
      "type": "tube_station",
      "coverage": {
        "walking": 8.8,
        "cycling": 120.2,
        "transit": 50,
        "driving": 112.6,
        "multimodal": 128.8
      },
      "zone": "mid"
    },
    {
      "id": "tfl-bruce-grove",
      "name": "Bruce Grove",
      "lat": 51.59411,
      "lng": -0.06983,
      "type": "tube_station",
      "coverage": {
        "walking": 10.4,
        "cycling": 128.8,
        "transit": 44.7,
        "driving": 146.7,
        "multimodal": 150.9
      },
      "zone": "mid"
    },
    {
      "id": "tfl-cambridge-heath",
      "name": "Cambridge Heath",
      "lat": 51.53238,
      "lng": -0.05723,
      "type": "tube_station",
      "coverage": {
        "walking": 11.6,
        "cycling": 109.9,
        "transit": 50.1,
        "driving": 75.3,
        "multimodal": 98.6
      },
      "zone": "inner"
    },
    {
      "id": "tfl-clapton",
      "name": "Clapton",
      "lat": 51.56145,
      "lng": -0.05721,
      "type": "tube_station",
      "coverage": {
        "walking": 10.9,
        "cycling": 131.8,
        "transit": 29.5,
        "driving": 94.4,
        "multimodal": 100.2
      },
      "zone": "inner"
    },
    {
      "id": "tfl-caledonian-road-barnsbury",
      "name": "Caledonian Road & Barnsbury",
      "lat": 51.54317,
      "lng": -0.11563,
      "type": "tube_station",
      "coverage": {
        "walking": 10,
        "cycling": 112.6,
        "transit": 34.9,
        "driving": 57.4,
        "multimodal": 62.9
      },
      "zone": "inner"
    },
    {
      "id": "tfl-clapham-high-street",
      "name": "Clapham High Street",
      "lat": 51.46508,
      "lng": -0.13199,
      "type": "tube_station",
      "coverage": {
        "walking": 10.9,
        "cycling": 111.9,
        "transit": 48.9,
        "driving": 59.9,
        "multimodal": 73.1
      },
      "zone": "inner"
    },
    {
      "id": "tfl-canonbury",
      "name": "Canonbury",
      "lat": 51.54872,
      "lng": -0.09195,
      "type": "tube_station",
      "coverage": {
        "walking": 10.8,
        "cycling": 114.6,
        "transit": 45,
        "driving": 54,
        "multimodal": 64.6
      },
      "zone": "inner"
    },
    {
      "id": "tfl-crouch-hill",
      "name": "Crouch Hill",
      "lat": 51.57116,
      "lng": -0.11714,
      "type": "tube_station",
      "coverage": {
        "walking": 10.9,
        "cycling": 119.2,
        "transit": 30.7,
        "driving": 95.9,
        "multimodal": 97.4
      },
      "zone": "inner"
    },
    {
      "id": "tfl-imperial-wharf",
      "name": "Imperial Wharf",
      "lat": 51.47481,
      "lng": -0.18274,
      "type": "tube_station",
      "coverage": {
        "walking": 7.7,
        "cycling": 116.6,
        "transit": 37.2,
        "driving": 113.5,
        "multimodal": 118.7
      },
      "zone": "inner"
    },
    {
      "id": "tfl-edmonton-green",
      "name": "Edmonton Green",
      "lat": 51.62492,
      "lng": -0.06087,
      "type": "tube_station",
      "coverage": {
        "walking": 10.5,
        "cycling": 123.6,
        "transit": 42.7,
        "driving": 284.9,
        "multimodal": 289.3
      },
      "zone": "mid"
    },
    {
      "id": "tfl-finchley-road-frognal",
      "name": "Finchley Road & Frognal",
      "lat": 51.5502,
      "lng": -0.1828,
      "type": "tube_station",
      "coverage": {
        "walking": 12,
        "cycling": 127.7,
        "transit": 66,
        "driving": 196,
        "multimodal": 198
      },
      "zone": "inner"
    },
    {
      "id": "tfl-gospel-oak",
      "name": "Gospel Oak",
      "lat": 51.55511,
      "lng": -0.151,
      "type": "tube_station",
      "coverage": {
        "walking": 11.2,
        "cycling": 120.6,
        "transit": 48,
        "driving": 94.9,
        "multimodal": 99.2
      },
      "zone": "inner"
    },
    {
      "id": "tfl-hackney-wick",
      "name": "Hackney Wick",
      "lat": 51.54317,
      "lng": -0.02542,
      "type": "tube_station",
      "coverage": {
        "walking": 11,
        "cycling": 122.4,
        "transit": 45.6,
        "driving": 268.8,
        "multimodal": 282.1
      },
      "zone": "mid"
    },
    {
      "id": "tfl-kensington-olympia",
      "name": "Kensington Olympia",
      "lat": 51.49776,
      "lng": -0.2105,
      "type": "tube_station",
      "coverage": {
        "walking": 10.3,
        "cycling": 114.9,
        "transit": 17.3,
        "driving": 205.6,
        "multimodal": 209.2
      },
      "zone": "inner"
    },
    {
      "id": "tfl-kensal-rise",
      "name": "Kensal Rise",
      "lat": 51.53437,
      "lng": -0.21995,
      "type": "tube_station",
      "coverage": {
        "walking": 10.2,
        "cycling": 119.6,
        "transit": 42.8,
        "driving": 79.4,
        "multimodal": 86.9
      },
      "zone": "inner"
    },
    {
      "id": "tfl-kentish-town-west",
      "name": "Kentish Town West",
      "lat": 51.54643,
      "lng": -0.14652,
      "type": "tube_station",
      "coverage": {
        "walking": 11.1,
        "cycling": 119.1,
        "transit": 37.5,
        "driving": 71.4,
        "multimodal": 77.6
      },
      "zone": "inner"
    },
    {
      "id": "tfl-leyton-midland-road",
      "name": "Leyton Midland Road",
      "lat": 51.56982,
      "lng": -0.0079,
      "type": "tube_station",
      "coverage": {
        "walking": 10.9,
        "cycling": 130,
        "transit": 30.9,
        "driving": 192.7,
        "multimodal": 199.6
      },
      "zone": "mid"
    },
    {
      "id": "tfl-london-fields",
      "name": "London Fields",
      "lat": 51.54103,
      "lng": -0.05779,
      "type": "tube_station",
      "coverage": {
        "walking": 11.3,
        "cycling": 115.8,
        "transit": 45.6,
        "driving": 101.8,
        "multimodal": 120
      },
      "zone": "inner"
    },
    {
      "id": "tfl-leytonstone-high-road",
      "name": "Leytonstone High Road",
      "lat": 51.56333,
      "lng": 0.00857,
      "type": "tube_station",
      "coverage": {
        "walking": 11.3,
        "cycling": 134.7,
        "transit": 30.5,
        "driving": 213,
        "multimodal": 222.6
      },
      "zone": "mid"
    },
    {
      "id": "tfl-north-wembley",
      "name": "North Wembley",
      "lat": 51.56283,
      "lng": -0.30399,
      "type": "tube_station",
      "coverage": {
        "walking": 11.2,
        "cycling": 137.1,
        "transit": 31.6,
        "driving": 191.8,
        "multimodal": 194.2
      },
      "zone": "mid"
    },
    {
      "id": "tfl-queens-road-peckham",
      "name": "Queen's Road Peckham",
      "lat": 51.47382,
      "lng": -0.05739,
      "type": "tube_station",
      "coverage": {
        "walking": 11,
        "cycling": 99,
        "transit": 43.3,
        "driving": 75,
        "multimodal": 77.5
      },
      "zone": "inner"
    },
    {
      "id": "tfl-penge-west",
      "name": "Penge West",
      "lat": 51.41767,
      "lng": -0.06112,
      "type": "tube_station",
      "coverage": {
        "walking": 10.7,
        "cycling": 129.1,
        "transit": 31.2,
        "driving": 137,
        "multimodal": 138
      },
      "zone": "mid"
    },
    {
      "id": "tfl-rectory-road",
      "name": "Rectory Road",
      "lat": 51.55857,
      "lng": -0.06857,
      "type": "tube_station",
      "coverage": {
        "walking": 10.6,
        "cycling": 120.2,
        "transit": 25.4,
        "driving": 59.6,
        "multimodal": 62.8
      },
      "zone": "inner"
    },
    {
      "id": "tfl-south-acton",
      "name": "South Acton",
      "lat": 51.49923,
      "lng": -0.27035,
      "type": "tube_station",
      "coverage": {
        "walking": 10.2,
        "cycling": 119,
        "transit": 15.8,
        "driving": 226.1,
        "multimodal": 229.1
      },
      "zone": "mid"
    },
    {
      "id": "tfl-silver-street",
      "name": "Silver Street",
      "lat": 51.61474,
      "lng": -0.06719,
      "type": "tube_station",
      "coverage": {
        "walking": 10.9,
        "cycling": 127.9,
        "transit": 47.1,
        "driving": 450.2,
        "multimodal": 453.6
      },
      "zone": "mid"
    },
    {
      "id": "tfl-stoke-newington",
      "name": "Stoke Newington",
      "lat": 51.56532,
      "lng": -0.07311,
      "type": "tube_station",
      "coverage": {
        "walking": 11,
        "cycling": 127.3,
        "transit": 30.9,
        "driving": 66.9,
        "multimodal": 69.5
      },
      "zone": "inner"
    },
    {
      "id": "tfl-west-croydon",
      "name": "West Croydon",
      "lat": 51.37809,
      "lng": -0.10277,
      "type": "tube_station",
      "coverage": {
        "walking": 11.8,
        "cycling": 131.5,
        "transit": 47.3,
        "driving": 202,
        "multimodal": 203.2
      },
      "zone": "mid"
    },
    {
      "id": "tfl-woodgrange-park",
      "name": "Woodgrange Park",
      "lat": 51.5494,
      "lng": 0.044,
      "type": "tube_station",
      "coverage": {
        "walking": 10.6,
        "cycling": 123.4,
        "transit": 37.2,
        "driving": 148.8,
        "multimodal": 151.3
      },
      "zone": "mid"
    },
    {
      "id": "tfl-wood-street",
      "name": "Wood Street",
      "lat": 51.58645,
      "lng": -0.00261,
      "type": "tube_station",
      "coverage": {
        "walking": 11.4,
        "cycling": 135.5,
        "transit": 27,
        "driving": 337.4,
        "multimodal": 340.4
      },
      "zone": "mid"
    },
    {
      "id": "tfl-white-hart-lane",
      "name": "White Hart Lane",
      "lat": 51.60533,
      "lng": -0.071,
      "type": "tube_station",
      "coverage": {
        "walking": 11,
        "cycling": 128.3,
        "transit": 36.4,
        "driving": 320.1,
        "multimodal": 322.5
      },
      "zone": "mid"
    },
    {
      "id": "tfl-west-hampstead-overground",
      "name": "West Hampstead Overground",
      "lat": 51.54747,
      "lng": -0.19116,
      "type": "tube_station",
      "coverage": {
        "walking": 10.8,
        "cycling": 125.2,
        "transit": 60,
        "driving": 171.6,
        "multimodal": 180.3
      },
      "zone": "inner"
    },
    {
      "id": "tfl-wanstead-park",
      "name": "Wanstead Park",
      "lat": 51.55191,
      "lng": 0.02523,
      "type": "tube_station",
      "coverage": {
        "walking": 11.3,
        "cycling": 127.7,
        "transit": 54.5,
        "driving": 141.1,
        "multimodal": 156.9
      },
      "zone": "mid"
    },
    {
      "id": "tfl-all-saints",
      "name": "All Saints",
      "lat": 51.51113,
      "lng": -0.01291,
      "type": "tube_station",
      "coverage": {
        "walking": 8.8,
        "cycling": 110.8,
        "transit": 43.7,
        "driving": 398.3,
        "multimodal": 402.5
      },
      "zone": "inner"
    },
    {
      "id": "tfl-blackwall",
      "name": "Blackwall",
      "lat": 51.50812,
      "lng": -0.00656,
      "type": "tube_station",
      "coverage": {
        "walking": 7.8,
        "cycling": 111.6,
        "transit": 41.2,
        "driving": 359.4,
        "multimodal": 366.3
      },
      "zone": "mid"
    },
    {
      "id": "tfl-beckton",
      "name": "Beckton",
      "lat": 51.51432,
      "lng": 0.06064,
      "type": "tube_station",
      "coverage": {
        "walking": 8.6,
        "cycling": 104.7,
        "transit": 24,
        "driving": 392.8,
        "multimodal": 397
      },
      "zone": "mid"
    },
    {
      "id": "tfl-beckton-park",
      "name": "Beckton Park",
      "lat": 51.50927,
      "lng": 0.05485,
      "type": "tube_station",
      "coverage": {
        "walking": 7.2,
        "cycling": 95.5,
        "transit": 26.7,
        "driving": 303.4,
        "multimodal": 309.6
      },
      "zone": "mid"
    },
    {
      "id": "tfl-crossharbour",
      "name": "Crossharbour",
      "lat": 51.49603,
      "lng": -0.0142,
      "type": "tube_station",
      "coverage": {
        "walking": 4.9,
        "cycling": 104.2,
        "transit": 37,
        "driving": 147.3,
        "multimodal": 160.4
      },
      "zone": "inner"
    },
    {
      "id": "tfl-gallions-reach",
      "name": "Gallions Reach",
      "lat": 51.50875,
      "lng": 0.07196,
      "type": "tube_station",
      "coverage": {
        "walking": 5.4,
        "cycling": 101.3,
        "transit": 28.3,
        "driving": 267.2,
        "multimodal": 275.1
      },
      "zone": "mid"
    },
    {
      "id": "tfl-king-george-v",
      "name": "King George V",
      "lat": 51.50194,
      "lng": 0.06177,
      "type": "tube_station",
      "coverage": {
        "walking": 4.6,
        "cycling": 99.1,
        "transit": 44.3,
        "driving": 217,
        "multimodal": 239.6
      },
      "zone": "mid"
    },
    {
      "id": "tfl-london-city-airport",
      "name": "London City Airport",
      "lat": 51.50329,
      "lng": 0.0498,
      "type": "tube_station",
      "coverage": {
        "walking": 4.5,
        "cycling": 89,
        "transit": 43.9,
        "driving": 154,
        "multimodal": 176.4
      },
      "zone": "mid"
    },
    {
      "id": "tfl-mudchute",
      "name": "Mudchute",
      "lat": 51.49118,
      "lng": -0.01469,
      "type": "tube_station",
      "coverage": {
        "walking": 5.6,
        "cycling": 107.7,
        "transit": 36.1,
        "driving": 99.9,
        "multimodal": 116
      },
      "zone": "mid"
    },
    {
      "id": "tfl-pudding-mill-lane",
      "name": "Pudding Mill Lane",
      "lat": 51.53401,
      "lng": -0.0131,
      "type": "tube_station",
      "coverage": {
        "walking": 10.5,
        "cycling": 115.3,
        "transit": 39.9,
        "driving": 240.7,
        "multimodal": 245.6
      },
      "zone": "mid"
    },
    {
      "id": "tfl-royal-albert",
      "name": "Royal Albert",
      "lat": 51.50809,
      "lng": 0.04572,
      "type": "tube_station",
      "coverage": {
        "walking": 7.7,
        "cycling": 97.8,
        "transit": 23.5,
        "driving": 230.3,
        "multimodal": 237.1
      },
      "zone": "mid"
    },
    {
      "id": "tfl-stratford-international",
      "name": "Stratford International",
      "lat": 51.5456,
      "lng": -0.00841,
      "type": "tube_station",
      "coverage": {
        "walking": 11,
        "cycling": 124.8,
        "transit": 63.4,
        "driving": 106.4,
        "multimodal": 124.1
      },
      "zone": "mid"
    },
    {
      "id": "tfl-south-quay",
      "name": "South Quay",
      "lat": 51.50013,
      "lng": -0.01658,
      "type": "tube_station",
      "coverage": {
        "walking": 5.4,
        "cycling": 105.8,
        "transit": 37.2,
        "driving": 155.1,
        "multimodal": 166.3
      },
      "zone": "inner"
    },
    {
      "id": "tfl-westferry",
      "name": "Westferry",
      "lat": 51.50942,
      "lng": -0.02661,
      "type": "tube_station",
      "coverage": {
        "walking": 8.8,
        "cycling": 109.4,
        "transit": 59.1,
        "driving": 299.5,
        "multimodal": 310.2
      },
      "zone": "inner"
    },
    {
      "id": "tfl-west-silvertown",
      "name": "West Silvertown",
      "lat": 51.50285,
      "lng": 0.02275,
      "type": "tube_station",
      "coverage": {
        "walking": 5.6,
        "cycling": 89.9,
        "transit": 45.9,
        "driving": 215.6,
        "multimodal": 225
      },
      "zone": "mid"
    },
    {
      "id": "tfl-arnos-grove",
      "name": "Arnos Grove",
      "lat": 51.61606,
      "lng": -0.1334,
      "type": "tube_station",
      "coverage": {
        "walking": 11.6,
        "cycling": 130.4,
        "transit": 51.8,
        "driving": 327.1,
        "multimodal": 333.7
      },
      "zone": "mid"
    },
    {
      "id": "tfl-bromley-by-bow",
      "name": "Bromley-by-Bow",
      "lat": 51.52473,
      "lng": -0.01144,
      "type": "tube_station",
      "coverage": {
        "walking": 10.5,
        "cycling": 109.3,
        "transit": 35.7,
        "driving": 420.7,
        "multimodal": 426.6
      },
      "zone": "mid"
    },
    {
      "id": "tfl-burnt-oak",
      "name": "Burnt Oak",
      "lat": 51.60259,
      "lng": -0.26398,
      "type": "tube_station",
      "coverage": {
        "walking": 11.2,
        "cycling": 130.5,
        "transit": 58.4,
        "driving": 402.1,
        "multimodal": 406.1
      },
      "zone": "mid"
    },
    {
      "id": "tfl-colliers-wood",
      "name": "Colliers Wood",
      "lat": 51.41805,
      "lng": -0.17819,
      "type": "tube_station",
      "coverage": {
        "walking": 11.5,
        "cycling": 133.2,
        "transit": 37.9,
        "driving": 107.2,
        "multimodal": 110.5
      },
      "zone": "mid"
    },
    {
      "id": "tfl-finchley-road",
      "name": "Finchley Road",
      "lat": 51.54688,
      "lng": -0.17976,
      "type": "tube_station",
      "coverage": {
        "walking": 12.1,
        "cycling": 129,
        "transit": 68.5,
        "driving": 164.3,
        "multimodal": 174.8
      },
      "zone": "inner"
    },
    {
      "id": "tfl-goldhawk-road",
      "name": "Goldhawk Road",
      "lat": 51.50193,
      "lng": -0.22731,
      "type": "tube_station",
      "coverage": {
        "walking": 10,
        "cycling": 116.2,
        "transit": 30.1,
        "driving": 127.7,
        "multimodal": 130
      },
      "zone": "inner"
    },
    {
      "id": "tfl-hanger-lane",
      "name": "Hanger Lane",
      "lat": 51.53013,
      "lng": -0.29275,
      "type": "tube_station",
      "coverage": {
        "walking": 12.4,
        "cycling": 147.4,
        "transit": 49.6,
        "driving": 623.5,
        "multimodal": 628.4
      },
      "zone": "mid"
    },
    {
      "id": "tfl-kingsbury",
      "name": "Kingsbury",
      "lat": 51.58498,
      "lng": -0.2787,
      "type": "tube_station",
      "coverage": {
        "walking": 11.8,
        "cycling": 121.8,
        "transit": 40.6,
        "driving": 202.6,
        "multimodal": 205.8
      },
      "zone": "mid"
    },
    {
      "id": "tfl-kilburn-park",
      "name": "Kilburn Park",
      "lat": 51.53505,
      "lng": -0.19358,
      "type": "tube_station",
      "coverage": {
        "walking": 10.1,
        "cycling": 115.2,
        "transit": 41.7,
        "driving": 95.5,
        "multimodal": 104.4
      },
      "zone": "inner"
    },
    {
      "id": "tfl-ladbroke-grove",
      "name": "Ladbroke Grove",
      "lat": 51.51742,
      "lng": -0.21007,
      "type": "tube_station",
      "coverage": {
        "walking": 10.2,
        "cycling": 115.1,
        "transit": 21.2,
        "driving": 109.5,
        "multimodal": 110.6
      },
      "zone": "inner"
    },
    {
      "id": "tfl-latimer-road",
      "name": "Latimer Road",
      "lat": 51.5137,
      "lng": -0.21763,
      "type": "tube_station",
      "coverage": {
        "walking": 9.4,
        "cycling": 118.2,
        "transit": 19.3,
        "driving": 98.7,
        "multimodal": 100.2
      },
      "zone": "inner"
    },
    {
      "id": "tfl-mill-hill-east",
      "name": "Mill Hill East",
      "lat": 51.60827,
      "lng": -0.20977,
      "type": "tube_station",
      "coverage": {
        "walking": 10.5,
        "cycling": 129.7,
        "transit": 28.4,
        "driving": 311.4,
        "multimodal": 314.2
      },
      "zone": "mid"
    },
    {
      "id": "tfl-mornington-crescent",
      "name": "Mornington Crescent",
      "lat": 51.53413,
      "lng": -0.13913,
      "type": "tube_station",
      "coverage": {
        "walking": 10.4,
        "cycling": 109.1,
        "transit": 56.1,
        "driving": 50,
        "multimodal": 71.2
      },
      "zone": "inner"
    },
    {
      "id": "tfl-north-ealing",
      "name": "North Ealing",
      "lat": 51.51755,
      "lng": -0.28915,
      "type": "tube_station",
      "coverage": {
        "walking": 10.6,
        "cycling": 135.5,
        "transit": 20.2,
        "driving": 442.2,
        "multimodal": 445.5
      },
      "zone": "mid"
    },
    {
      "id": "tfl-preston-road",
      "name": "Preston Road",
      "lat": 51.57178,
      "lng": -0.29487,
      "type": "tube_station",
      "coverage": {
        "walking": 11.8,
        "cycling": 131.7,
        "transit": 37,
        "driving": 174.2,
        "multimodal": 179.2
      },
      "zone": "mid"
    },
    {
      "id": "tfl-perivale",
      "name": "Perivale",
      "lat": 51.53677,
      "lng": -0.32401,
      "type": "tube_station",
      "coverage": {
        "walking": 10.5,
        "cycling": 139.1,
        "transit": 44.5,
        "driving": 491.4,
        "multimodal": 495
      },
      "zone": "mid"
    },
    {
      "id": "tfl-queensbury",
      "name": "Queensbury",
      "lat": 51.5941,
      "lng": -0.28552,
      "type": "tube_station",
      "coverage": {
        "walking": 11.2,
        "cycling": 122.1,
        "transit": 41.1,
        "driving": 220.8,
        "multimodal": 222.3
      },
      "zone": "mid"
    },
    {
      "id": "tfl-redbridge",
      "name": "Redbridge",
      "lat": 51.57628,
      "lng": 0.04556,
      "type": "tube_station",
      "coverage": {
        "walking": 10.8,
        "cycling": 130.8,
        "transit": 59.6,
        "driving": 674.9,
        "multimodal": 678.9
      },
      "zone": "mid"
    },
    {
      "id": "tfl-regents-park",
      "name": "Regent's Park",
      "lat": 51.52359,
      "lng": -0.14671,
      "type": "tube_station",
      "coverage": {
        "walking": 10.8,
        "cycling": 108.8,
        "transit": 52,
        "driving": 88.8,
        "multimodal": 103.3
      },
      "zone": "central"
    },
    {
      "id": "tfl-ravenscourt-park",
      "name": "Ravenscourt Park",
      "lat": 51.49406,
      "lng": -0.23656,
      "type": "tube_station",
      "coverage": {
        "walking": 10.4,
        "cycling": 124.3,
        "transit": 20.6,
        "driving": 221.6,
        "multimodal": 224.9
      },
      "zone": "inner"
    },
    {
      "id": "tfl-royal-oak",
      "name": "Royal Oak",
      "lat": 51.51911,
      "lng": -0.18878,
      "type": "tube_station",
      "coverage": {
        "walking": 11.4,
        "cycling": 119,
        "transit": 28.4,
        "driving": 160.6,
        "multimodal": 163.2
      },
      "zone": "inner"
    },
    {
      "id": "tfl-shepherds-bush-market",
      "name": "Shepherd's Bush Market",
      "lat": 51.5057,
      "lng": -0.22627,
      "type": "tube_station",
      "coverage": {
        "walking": 10.2,
        "cycling": 111.1,
        "transit": 30.2,
        "driving": 128.4,
        "multimodal": 129.5
      },
      "zone": "inner"
    },
    {
      "id": "tfl-south-ealing",
      "name": "South Ealing",
      "lat": 51.50138,
      "lng": -0.30685,
      "type": "tube_station",
      "coverage": {
        "walking": 10.9,
        "cycling": 134.6,
        "transit": 24.1,
        "driving": 228.6,
        "multimodal": 231.5
      },
      "zone": "mid"
    },
    {
      "id": "tfl-stamford-brook",
      "name": "Stamford Brook",
      "lat": 51.49499,
      "lng": -0.24678,
      "type": "tube_station",
      "coverage": {
        "walking": 9.9,
        "cycling": 122.9,
        "transit": 23.6,
        "driving": 156.4,
        "multimodal": 159.7
      },
      "zone": "mid"
    },
    {
      "id": "tfl-southgate",
      "name": "Southgate",
      "lat": 51.63232,
      "lng": -0.12806,
      "type": "tube_station",
      "coverage": {
        "walking": 11.5,
        "cycling": 132.7,
        "transit": 49.4,
        "driving": 232.1,
        "multimodal": 239
      },
      "zone": "mid"
    },
    {
      "id": "tfl-st-james-park",
      "name": "St James's Park",
      "lat": 51.49962,
      "lng": -0.13313,
      "type": "tube_station",
      "coverage": {
        "walking": 10.2,
        "cycling": 115,
        "transit": 37.7,
        "driving": 49.8,
        "multimodal": 57.2
      },
      "zone": "central"
    },
    {
      "id": "tfl-snaresbrook",
      "name": "Snaresbrook",
      "lat": 51.58103,
      "lng": 0.02143,
      "type": "tube_station",
      "coverage": {
        "walking": 10.9,
        "cycling": 136.4,
        "transit": 43.6,
        "driving": 421.7,
        "multimodal": 428.1
      },
      "zone": "mid"
    },
    {
      "id": "tfl-sudbury-town",
      "name": "Sudbury Town",
      "lat": 51.55037,
      "lng": -0.31592,
      "type": "tube_station",
      "coverage": {
        "walking": 10.4,
        "cycling": 143.8,
        "transit": 36,
        "driving": 259.8,
        "multimodal": 261.4
      },
      "zone": "mid"
    },
    {
      "id": "tfl-south-woodford",
      "name": "South Woodford",
      "lat": 51.59193,
      "lng": 0.02769,
      "type": "tube_station",
      "coverage": {
        "walking": 11,
        "cycling": 135.8,
        "transit": 44.1,
        "driving": 423.3,
        "multimodal": 431.2
      },
      "zone": "mid"
    },
    {
      "id": "tfl-south-wimbledon",
      "name": "South Wimbledon",
      "lat": 51.41527,
      "lng": -0.19251,
      "type": "tube_station",
      "coverage": {
        "walking": 10.2,
        "cycling": 133.5,
        "transit": 34.8,
        "driving": 147.5,
        "multimodal": 152
      },
      "zone": "mid"
    },
    {
      "id": "tfl-totteridge-whetstone",
      "name": "Totteridge & Whetstone",
      "lat": 51.63018,
      "lng": -0.17928,
      "type": "tube_station",
      "coverage": {
        "walking": 12.1,
        "cycling": 135.8,
        "transit": 47.3,
        "driving": 288.7,
        "multimodal": 293
      },
      "zone": "mid"
    },
    {
      "id": "tfl-upton-park",
      "name": "Upton Park",
      "lat": 51.53548,
      "lng": 0.03521,
      "type": "tube_station",
      "coverage": {
        "walking": 10.4,
        "cycling": 105.7,
        "transit": 33.3,
        "driving": 115.5,
        "multimodal": 119
      },
      "zone": "mid"
    },
    {
      "id": "tfl-west-finchley",
      "name": "West Finchley",
      "lat": 51.60958,
      "lng": -0.18863,
      "type": "tube_station",
      "coverage": {
        "walking": 10.8,
        "cycling": 136,
        "transit": 40.8,
        "driving": 305.5,
        "multimodal": 308
      },
      "zone": "mid"
    },
    {
      "id": "tfl-willesden-green",
      "name": "Willesden Green",
      "lat": 51.54924,
      "lng": -0.22094,
      "type": "tube_station",
      "coverage": {
        "walking": 10.9,
        "cycling": 128.6,
        "transit": 43.4,
        "driving": 190.1,
        "multimodal": 196
      },
      "zone": "inner"
    },
    {
      "id": "tfl-woodside-park",
      "name": "Woodside Park",
      "lat": 51.61795,
      "lng": -0.18516,
      "type": "tube_station",
      "coverage": {
        "walking": 11.4,
        "cycling": 138.1,
        "transit": 25.9,
        "driving": 233.3,
        "multimodal": 235.5
      },
      "zone": "mid"
    },
    {
      "id": "tfl-wanstead",
      "name": "Wanstead",
      "lat": 51.57559,
      "lng": 0.02832,
      "type": "tube_station",
      "coverage": {
        "walking": 11.7,
        "cycling": 135.1,
        "transit": 58.2,
        "driving": 607.5,
        "multimodal": 613.7
      },
      "zone": "mid"
    },
    {
      "id": "tfl-westbourne-park",
      "name": "Westbourne Park",
      "lat": 51.5209,
      "lng": -0.20067,
      "type": "tube_station",
      "coverage": {
        "walking": 10.9,
        "cycling": 124.6,
        "transit": 22.3,
        "driving": 138.3,
        "multimodal": 139.8
      },
      "zone": "inner"
    },
    {
      "id": "tfl-west-acton",
      "name": "West Acton",
      "lat": 51.51789,
      "lng": -0.28108,
      "type": "tube_station",
      "coverage": {
        "walking": 10.9,
        "cycling": 138.3,
        "transit": 27.1,
        "driving": 364.7,
        "multimodal": 368.2
      },
      "zone": "mid"
    },
    {
      "id": "tfl-forest-gate",
      "name": "Forest Gate",
      "lat": 51.549297,
      "lng": 0.023842,
      "type": "tube_station",
      "coverage": {
        "walking": 10.6,
        "cycling": 124,
        "transit": 45.5,
        "driving": 67.4,
        "multimodal": 82.1
      },
      "zone": "mid"
    },
    {
      "id": "tfl-hanwell",
      "name": "Hanwell",
      "lat": 51.511888,
      "lng": -0.338524,
      "type": "tube_station",
      "coverage": {
        "walking": 10.7,
        "cycling": 136.5,
        "transit": 40.7,
        "driving": 166,
        "multimodal": 173.4
      },
      "zone": "mid"
    },
    {
      "id": "tfl-manor-park",
      "name": "Manor Park",
      "lat": 51.552291,
      "lng": 0.045107,
      "type": "tube_station",
      "coverage": {
        "walking": 9.5,
        "cycling": 122.1,
        "transit": 39.5,
        "driving": 119.9,
        "multimodal": 128.2
      },
      "zone": "mid"
    },
    {
      "id": "tfl-maryland",
      "name": "Maryland",
      "lat": 51.545937,
      "lng": 0.005852,
      "type": "tube_station",
      "coverage": {
        "walking": 11,
        "cycling": 121.9,
        "transit": 63.4,
        "driving": 60.5,
        "multimodal": 87
      },
      "zone": "mid"
    },
    {
      "id": "tfl-west-ealing",
      "name": "West Ealing",
      "lat": 51.513411,
      "lng": -0.322313,
      "type": "tube_station",
      "coverage": {
        "walking": 8.7,
        "cycling": 125,
        "transit": 35.5,
        "driving": 190,
        "multimodal": 197.2
      },
      "zone": "mid"
    },
    {
      "id": "tfl-camden-road",
      "name": "Camden Road",
      "lat": 51.541791,
      "lng": -0.138701,
      "type": "tube_station",
      "coverage": {
        "walking": 11,
        "cycling": 117.1,
        "transit": 50.9,
        "driving": 49.3,
        "multimodal": 64.2
      },
      "zone": "inner"
    },
    {
      "id": "tfl-hampstead-heath",
      "name": "Hampstead Heath",
      "lat": 51.55521,
      "lng": -0.165705,
      "type": "tube_station",
      "coverage": {
        "walking": 11.9,
        "cycling": 125.9,
        "transit": 32.7,
        "driving": 131.9,
        "multimodal": 133.5
      },
      "zone": "inner"
    },
    {
      "id": "tfl-battersea-power",
      "name": "Battersea Power Station",
      "lat": 51.479932,
      "lng": -0.142142,
      "type": "tube_station",
      "coverage": {
        "walking": 9.9,
        "cycling": 110.7,
        "transit": 27.4,
        "driving": 51,
        "multimodal": 53
      },
      "zone": "inner"
    },
    {
      "id": "tfl-langdon-park",
      "name": "Langdon Park",
      "lat": 51.515172,
      "lng": -0.01415,
      "type": "tube_station",
      "coverage": {
        "walking": 8.5,
        "cycling": 108.3,
        "transit": 40.8,
        "driving": 332.4,
        "multimodal": 338.8
      },
      "zone": "inner"
    },
    {
      "id": "tfl-pontoon-dock",
      "name": "Pontoon Dock",
      "lat": 51.502212,
      "lng": 0.032115,
      "type": "tube_station",
      "coverage": {
        "walking": 5.4,
        "cycling": 92.2,
        "transit": 35,
        "driving": 167.4,
        "multimodal": 177.5
      },
      "zone": "mid"
    },
    {
      "id": "tfl-west-kensington",
      "name": "West Kensington",
      "lat": 51.490459,
      "lng": -0.206636,
      "type": "tube_station",
      "coverage": {
        "walking": 10.5,
        "cycling": 119.2,
        "transit": 23.3,
        "driving": 238.7,
        "multimodal": 242
      },
      "zone": "inner"
    },
    {
      "id": "tfl-nine-elms",
      "name": "Nine Elms",
      "lat": 51.479912,
      "lng": -0.128476,
      "type": "tube_station",
      "coverage": {
        "walking": 9.5,
        "cycling": 113.6,
        "transit": 36.3,
        "driving": 58.8,
        "multimodal": 65.5
      },
      "zone": "inner"
    },
    {
      "id": "grid-51.350--0.316",
      "name": "Chessington South & Malden Rushett",
      "lat": 51.35,
      "lng": -0.316,
      "type": "grid",
      "coverage": {
        "walking": 6.4,
        "cycling": 135.3,
        "transit": 0.7,
        "driving": 662.9,
        "multimodal": 667.2
      },
      "zone": "outer"
    },
    {
      "id": "grid-51.350--0.274",
      "name": "Court",
      "lat": 51.35,
      "lng": -0.274,
      "type": "grid",
      "coverage": {
        "walking": 8.5,
        "cycling": 130.8,
        "transit": 4.1,
        "driving": 259.2,
        "multimodal": 261.3
      },
      "zone": "outer"
    },
    {
      "id": "grid-51.350--0.232",
      "name": "Stoneleigh",
      "lat": 51.35,
      "lng": -0.232,
      "type": "grid",
      "coverage": {
        "walking": 8.8,
        "cycling": 137.8,
        "transit": 6.1,
        "driving": 329.4,
        "multimodal": 331.2
      },
      "zone": "outer"
    },
    {
      "id": "grid-51.350--0.190",
      "name": "Belmont",
      "lat": 51.35,
      "lng": -0.19,
      "type": "grid",
      "coverage": {
        "walking": 9.5,
        "cycling": 128.2,
        "transit": 21,
        "driving": 277,
        "multimodal": 279.8
      },
      "zone": "outer"
    },
    {
      "id": "grid-51.350--0.148",
      "name": "Wallington South",
      "lat": 51.35,
      "lng": -0.148,
      "type": "grid",
      "coverage": {
        "walking": 11,
        "cycling": 136.4,
        "transit": 15.7,
        "driving": 290.6,
        "multimodal": 293
      },
      "zone": "outer"
    },
    {
      "id": "grid-51.350--0.106",
      "name": "South Croydon",
      "lat": 51.35,
      "lng": -0.106,
      "type": "grid",
      "coverage": {
        "walking": 10.5,
        "cycling": 134.1,
        "transit": 15.6,
        "driving": 261.7,
        "multimodal": 263.8
      },
      "zone": "outer"
    },
    {
      "id": "grid-51.350--0.064",
      "name": "Selsdon",
      "lat": 51.35,
      "lng": -0.064,
      "type": "grid",
      "coverage": {
        "walking": 9.6,
        "cycling": 133.9,
        "transit": 15.3,
        "driving": 215.3,
        "multimodal": 217.2
      },
      "zone": "outer"
    },
    {
      "id": "grid-51.350--0.022",
      "name": "New Addington North",
      "lat": 51.35,
      "lng": -0.022,
      "type": "grid",
      "coverage": {
        "walking": 8.1,
        "cycling": 124.3,
        "transit": 13.5,
        "driving": 229.1,
        "multimodal": 231.6
      },
      "zone": "outer"
    },
    {
      "id": "grid-51.350-0.020",
      "name": "London Borough of Bromley",
      "lat": 51.35,
      "lng": 0.02,
      "type": "grid",
      "coverage": {
        "walking": 4.6,
        "cycling": 92.8,
        "transit": 0.8,
        "driving": 198.3,
        "multimodal": 199.9
      },
      "zone": "outer"
    },
    {
      "id": "grid-51.350-0.062",
      "name": "London Borough of Bromley",
      "lat": 51.35,
      "lng": 0.062,
      "type": "grid",
      "coverage": {
        "walking": 9.2,
        "cycling": 119.3,
        "transit": 5,
        "driving": 533.9,
        "multimodal": 537
      },
      "zone": "outer"
    },
    {
      "id": "grid-51.350-0.104",
      "name": "Pratt's Bottom",
      "lat": 51.35,
      "lng": 0.104,
      "type": "grid",
      "coverage": {
        "walking": 10.2,
        "cycling": 148.6,
        "transit": 6.5,
        "driving": 769.1,
        "multimodal": 775.1
      },
      "zone": "outer"
    },
    {
      "id": "grid-51.350-0.146",
      "name": "Shoreham",
      "lat": 51.35,
      "lng": 0.146,
      "type": "grid",
      "coverage": {
        "walking": 8.4,
        "cycling": 146.2,
        "transit": 1.5,
        "driving": 742.7,
        "multimodal": 749.2
      },
      "zone": "outer"
    },
    {
      "id": "grid-51.377--0.358",
      "name": "Esher",
      "lat": 51.377,
      "lng": -0.358,
      "type": "grid",
      "coverage": {
        "walking": 4.6,
        "cycling": 100.3,
        "transit": 0.4,
        "driving": 284.2,
        "multimodal": 287.2
      },
      "zone": "outer"
    },
    {
      "id": "grid-51.377--0.316",
      "name": "Long Ditton",
      "lat": 51.377,
      "lng": -0.316,
      "type": "grid",
      "coverage": {
        "walking": 10.6,
        "cycling": 125.3,
        "transit": 10.2,
        "driving": 463.4,
        "multimodal": 469.5
      },
      "zone": "outer"
    },
    {
      "id": "grid-51.377--0.274",
      "name": "Tolworth",
      "lat": 51.377,
      "lng": -0.274,
      "type": "grid",
      "coverage": {
        "walking": 8.9,
        "cycling": 132.7,
        "transit": 11.6,
        "driving": 474.3,
        "multimodal": 478.2
      },
      "zone": "outer"
    },
    {
      "id": "grid-51.377--0.232",
      "name": "Worcester Park North",
      "lat": 51.377,
      "lng": -0.232,
      "type": "grid",
      "coverage": {
        "walking": 8.5,
        "cycling": 119.3,
        "transit": 9.5,
        "driving": 231.8,
        "multimodal": 235.4
      },
      "zone": "outer"
    },
    {
      "id": "grid-51.377--0.190",
      "name": "Sutton North",
      "lat": 51.377,
      "lng": -0.19,
      "type": "grid",
      "coverage": {
        "walking": 10,
        "cycling": 127.9,
        "transit": 21,
        "driving": 189.6,
        "multimodal": 190.6
      },
      "zone": "outer"
    },
    {
      "id": "grid-51.377--0.148",
      "name": "Hackbridge",
      "lat": 51.377,
      "lng": -0.148,
      "type": "grid",
      "coverage": {
        "walking": 7.2,
        "cycling": 113.8,
        "transit": 12.1,
        "driving": 95.9,
        "multimodal": 96.6
      },
      "zone": "mid"
    },
    {
      "id": "grid-51.377--0.064",
      "name": "Addiscombe East",
      "lat": 51.377,
      "lng": -0.064,
      "type": "grid",
      "coverage": {
        "walking": 10.8,
        "cycling": 127.7,
        "transit": 21.4,
        "driving": 268.1,
        "multimodal": 269.3
      },
      "zone": "outer"
    },
    {
      "id": "grid-51.377--0.022",
      "name": "West Wickham",
      "lat": 51.377,
      "lng": -0.022,
      "type": "grid",
      "coverage": {
        "walking": 9,
        "cycling": 129.6,
        "transit": 24,
        "driving": 295.4,
        "multimodal": 297.6
      },
      "zone": "outer"
    },
    {
      "id": "grid-51.377-0.020",
      "name": "Hayes & Coney Hall",
      "lat": 51.377,
      "lng": 0.02,
      "type": "grid",
      "coverage": {
        "walking": 9.7,
        "cycling": 136.7,
        "transit": 20.7,
        "driving": 357.6,
        "multimodal": 359.9
      },
      "zone": "outer"
    },
    {
      "id": "grid-51.377-0.062",
      "name": "Southborough",
      "lat": 51.377,
      "lng": 0.062,
      "type": "grid",
      "coverage": {
        "walking": 9,
        "cycling": 135.3,
        "transit": 3.3,
        "driving": 286.6,
        "multimodal": 289.6
      },
      "zone": "outer"
    },
    {
      "id": "grid-51.377-0.104",
      "name": "Orpington",
      "lat": 51.377,
      "lng": 0.104,
      "type": "grid",
      "coverage": {
        "walking": 11.4,
        "cycling": 145.4,
        "transit": 29.9,
        "driving": 433.8,
        "multimodal": 439.5
      },
      "zone": "outer"
    },
    {
      "id": "grid-51.377-0.146",
      "name": "St Mary Cray",
      "lat": 51.377,
      "lng": 0.146,
      "type": "grid",
      "coverage": {
        "walking": 8.5,
        "cycling": 137.2,
        "transit": 1.7,
        "driving": 372.5,
        "multimodal": 376.1
      },
      "zone": "outer"
    },
    {
      "id": "grid-51.404--0.358",
      "name": "Molesey East",
      "lat": 51.404,
      "lng": -0.358,
      "type": "grid",
      "coverage": {
        "walking": 5.3,
        "cycling": 111.2,
        "transit": 6,
        "driving": 229.7,
        "multimodal": 233.3
      },
      "zone": "outer"
    },
    {
      "id": "grid-51.404--0.316",
      "name": "Hampton Wick",
      "lat": 51.404,
      "lng": -0.316,
      "type": "grid",
      "coverage": {
        "walking": 7.3,
        "cycling": 125.8,
        "transit": 9.9,
        "driving": 164.3,
        "multimodal": 168.5
      },
      "zone": "outer"
    },
    {
      "id": "grid-51.404--0.274",
      "name": "Norbiton",
      "lat": 51.404,
      "lng": -0.274,
      "type": "grid",
      "coverage": {
        "walking": 9.7,
        "cycling": 142.1,
        "transit": 9.6,
        "driving": 212.4,
        "multimodal": 216.5
      },
      "zone": "outer"
    },
    {
      "id": "grid-51.404--0.232",
      "name": "West Barnes",
      "lat": 51.404,
      "lng": -0.232,
      "type": "grid",
      "coverage": {
        "walking": 9.9,
        "cycling": 135.3,
        "transit": 19.7,
        "driving": 294.5,
        "multimodal": 298.9
      },
      "zone": "mid"
    },
    {
      "id": "grid-51.404--0.148",
      "name": "Pollards Hill",
      "lat": 51.404,
      "lng": -0.148,
      "type": "grid",
      "coverage": {
        "walking": 9,
        "cycling": 117.9,
        "transit": 5,
        "driving": 122,
        "multimodal": 122.7
      },
      "zone": "mid"
    },
    {
      "id": "grid-51.404--0.106",
      "name": "Thornton Heath",
      "lat": 51.404,
      "lng": -0.106,
      "type": "grid",
      "coverage": {
        "walking": 10.6,
        "cycling": 123,
        "transit": 12.7,
        "driving": 139.4,
        "multimodal": 140.2
      },
      "zone": "mid"
    },
    {
      "id": "grid-51.404--0.064",
      "name": "Clock House",
      "lat": 51.404,
      "lng": -0.064,
      "type": "grid",
      "coverage": {
        "walking": 8.4,
        "cycling": 114.6,
        "transit": 20.4,
        "driving": 148.1,
        "multimodal": 148.8
      },
      "zone": "mid"
    },
    {
      "id": "grid-51.404--0.022",
      "name": "Kelsey & Eden Park",
      "lat": 51.404,
      "lng": -0.022,
      "type": "grid",
      "coverage": {
        "walking": 9.5,
        "cycling": 118.5,
        "transit": 16.7,
        "driving": 214.2,
        "multimodal": 216
      },
      "zone": "mid"
    },
    {
      "id": "grid-51.404-0.020",
      "name": "Bromley Town",
      "lat": 51.404,
      "lng": 0.02,
      "type": "grid",
      "coverage": {
        "walking": 11.2,
        "cycling": 138.1,
        "transit": 38.3,
        "driving": 217,
        "multimodal": 219.1
      },
      "zone": "outer"
    },
    {
      "id": "grid-51.404-0.062",
      "name": "Chislehurst",
      "lat": 51.404,
      "lng": 0.062,
      "type": "grid",
      "coverage": {
        "walking": 9.9,
        "cycling": 137.3,
        "transit": 18.1,
        "driving": 308.1,
        "multimodal": 310.7
      },
      "zone": "outer"
    },
    {
      "id": "grid-51.404-0.104",
      "name": "St Paul's Cray",
      "lat": 51.404,
      "lng": 0.104,
      "type": "grid",
      "coverage": {
        "walking": 10.3,
        "cycling": 140.1,
        "transit": 20.2,
        "driving": 409.6,
        "multimodal": 412.7
      },
      "zone": "outer"
    },
    {
      "id": "grid-51.404-0.146",
      "name": "Swanley",
      "lat": 51.404,
      "lng": 0.146,
      "type": "grid",
      "coverage": {
        "walking": 8.7,
        "cycling": 135.4,
        "transit": 2,
        "driving": 347,
        "multimodal": 349.7
      },
      "zone": "outer"
    },
    {
      "id": "grid-51.431--0.358",
      "name": "Fulwell & Hampton Hill",
      "lat": 51.431,
      "lng": -0.358,
      "type": "grid",
      "coverage": {
        "walking": 10.4,
        "cycling": 131.3,
        "transit": 15.1,
        "driving": 240.6,
        "multimodal": 247.2
      },
      "zone": "outer"
    },
    {
      "id": "grid-51.431--0.316",
      "name": "Ham, Petersham & Richmond Riverside",
      "lat": 51.431,
      "lng": -0.316,
      "type": "grid",
      "coverage": {
        "walking": 9.1,
        "cycling": 136,
        "transit": 13.6,
        "driving": 80.9,
        "multimodal": 86.4
      },
      "zone": "outer"
    },
    {
      "id": "grid-51.431--0.274",
      "name": "East Sheen",
      "lat": 51.431,
      "lng": -0.274,
      "type": "grid",
      "coverage": {
        "walking": 11.4,
        "cycling": 148.4,
        "transit": 7.6,
        "driving": 105.6,
        "multimodal": 108.1
      },
      "zone": "mid"
    },
    {
      "id": "grid-51.431--0.232",
      "name": "Raynes Park",
      "lat": 51.431,
      "lng": -0.232,
      "type": "grid",
      "coverage": {
        "walking": 11.7,
        "cycling": 146.5,
        "transit": 7.8,
        "driving": 90.4,
        "multimodal": 91.5
      },
      "zone": "mid"
    },
    {
      "id": "grid-51.431--0.190",
      "name": "Wimbledon Park",
      "lat": 51.431,
      "lng": -0.19,
      "type": "grid",
      "coverage": {
        "walking": 9,
        "cycling": 123.4,
        "transit": 12.7,
        "driving": 86.5,
        "multimodal": 87
      },
      "zone": "mid"
    },
    {
      "id": "grid-51.431--0.148",
      "name": "Furzedown",
      "lat": 51.431,
      "lng": -0.148,
      "type": "grid",
      "coverage": {
        "walking": 11,
        "cycling": 122.9,
        "transit": 22.9,
        "driving": 103.3,
        "multimodal": 104
      },
      "zone": "mid"
    },
    {
      "id": "grid-51.431--0.106",
      "name": "Knight's Hill",
      "lat": 51.431,
      "lng": -0.106,
      "type": "grid",
      "coverage": {
        "walking": 10.1,
        "cycling": 120.7,
        "transit": 19.7,
        "driving": 92.7,
        "multimodal": 93.1
      },
      "zone": "mid"
    },
    {
      "id": "grid-51.431--0.064",
      "name": "Forest Hill",
      "lat": 51.431,
      "lng": -0.064,
      "type": "grid",
      "coverage": {
        "walking": 10.8,
        "cycling": 126,
        "transit": 21.4,
        "driving": 121.8,
        "multimodal": 122.4
      },
      "zone": "mid"
    },
    {
      "id": "grid-51.431--0.022",
      "name": "Bellingham",
      "lat": 51.431,
      "lng": -0.022,
      "type": "grid",
      "coverage": {
        "walking": 10.2,
        "cycling": 117.7,
        "transit": 21.4,
        "driving": 146.7,
        "multimodal": 147.6
      },
      "zone": "mid"
    },
    {
      "id": "grid-51.431-0.020",
      "name": "Downham",
      "lat": 51.431,
      "lng": 0.02,
      "type": "grid",
      "coverage": {
        "walking": 10,
        "cycling": 128.2,
        "transit": 30,
        "driving": 185.4,
        "multimodal": 188.8
      },
      "zone": "mid"
    },
    {
      "id": "grid-51.431-0.062",
      "name": "Coldharbour",
      "lat": 51.431,
      "lng": 0.062,
      "type": "grid",
      "coverage": {
        "walking": 10.7,
        "cycling": 150.5,
        "transit": 15.1,
        "driving": 424.7,
        "multimodal": 428.3
      },
      "zone": "outer"
    },